[
  {
    "name": "Nerdz",
    "category": "Luderia",
    "address": "Rua Sarmento Leite, 641",
    "logo_url": "",
    "tel": "(51) 3028-1426",
    "face": "https://www.facebook.com/Nerdz.etc/",
    "web": "https://lojanerdz.com.br/",
    "cnpj": "00.799.065/0001-49",
    "lat": -30.0345775,
    "long": -51.2221101
  },
  {
    "name": "Nerdz Curitiba",
    "category": "Luderia",
    "address": "Rua Presidente Carlos Cavalcanti, 900",
    "logo_url": "",
    "tel": "(41) 3016-8026",
    "face": "https://www.facebook.com/NerdzCwb/",
    "web": "https://lojanerdz.com.br/",
    "cnpj": "00.799.065/0001-49",
    "lat": -25.4253233,
    "long": -49.2738241
  },
  {
    "name": "Dragon�s House Hobby Store",
    "category": "Loja de Cards",
    "address": "R. Conselheiro Mafra, 246 - Centro",
    "logo_url": "",
    "tel": "(48) 3222-9793",
    "face": "https://www.facebook.com/dragonshousehobbystore/",
    "web": "https://dragonshouse.com.br/",
    "cnpj": "02.238.386/0001-08",
    "lat": -27.5967727,
    "long": -48.552708
  },
  {
    "name": "Chuck Tcg",
    "category": "Loja de Cards",
    "address": "R. Goitacazes, 436 - Santo Ant�nio, S�o Caetano do Sul - SP, 09510-300",
    "logo_url": "",
    "tel": "(11) 4227-6979",
    "face": "https://www.facebook.com/chucktcg/",
    "web": "https://www.chucktcg.com.br/",
    "cnpj": "03.843.503/0001-17",
    "lat": -23.6179481,
    "long": -46.5704628
  },
  {
    "name": "Lan House Quest",
    "category": "Lan House Gamer",
    "address": "R. Volunt�rios da P�tria, 3116 - Santana, S�o Paulo - SP, 02402-200, Brazil",
    "logo_url": "",
    "tel": "(11) 2979-4469",
    "face": "https://www.facebook.com/questlanhouse/",
    "web": "https://lan-house-quest.negocio.site/?utm_source=gmb&utm_medium=referral",
    "cnpj": "03.843.503/0001-17",
    "lat": -23.4927813,
    "long": -46.6260724
  },
  {
    "name": "Beta Games",
    "category": "Estabelecimento Gamer",
    "address": "R. Na��es Unidas, 42 - Centro, Laranjal Paulista - SP, 18500-000, Brazil",
    "logo_url": "",
    "tel": "(15) 3283-5162",
    "face": "https://www.facebook.com/betagameslp",
    "web": "http://betagames.com.br/",
    "cnpj": "N�o Consta",
    "lat": -2.3052035,
    "long": -47.8367004
  },
  {
    "name": "Votogames",
    "category": "Estabelecimento Gamer",
    "address": "Av. Dr. Armando Pannunzio, 1530 - Jardim Vera Cruz, Sorocaba - SP, 18050-000, Brazil",
    "logo_url": "",
    "tel": "(15) 3217-4622",
    "face": "https://www.facebook.com/votogames",
    "web": "https://www.votogames.com/",
    "cnpj": "05.140.309/0001-09",
    "lat": -23.5271022,
    "long": -47.4912619
  },
  {
    "name": "Compugames",
    "category": "Estabelecimento Gamer",
    "address": "R. Independ�ncia, 81-103 - Centro",
    "logo_url": "",
    "tel": "(54) 2628-4190",
    "face": "https://www.facebook.com/gameslan/",
    "web": "N�o possui",
    "cnpj": "72.438.120/0001-86",
    "lat": -29.2257824,
    "long": -51.3508049
  },
  {
    "name": "Clansbr Brusque",
    "category": "Lan House Gamer",
    "address": "n� sala 02, Av. C�nsul Carlos Renaux, 182 - Centro 1",
    "logo_url": "",
    "tel": "(47) 3513-6221",
    "face": "https://www.facebook.com/Clansbr-Brusque-1004168003074023/",
    "web": "N�o possui",
    "cnpj": "05.209.904/0001-45",
    "lat": -27.0956082,
    "long": -48.914668
  },
  {
    "name": "Crovax Gaming",
    "category": "Estabelecimento Gamer",
    "address": "R. Geraldo L�cio Vasconcelos, 989 - Buritis",
    "logo_url": "",
    "tel": "(31) 98408-6670",
    "face": "https://www.facebook.com/crovaxgaming/",
    "web": "https://cvxgaming.com.br",
    "cnpj": "27.590.128/0001-09",
    "lat": -19.9768923,
    "long": -43.9762289
  },
  {
    "name": "Clansbr Lan House",
    "category": "Lan House Gamer",
    "address": "Rua 1200, n�19\nCentro \nCEP 88330-549",
    "logo_url": "",
    "tel": "(47) 3056-6773",
    "face": "https://www.facebook.com/clansbr/",
    "web": "N�o possui",
    "cnpj": "05.209.904/0001-45",
    "lat": -26.98856,
    "long": -48.63104
  },
  {
    "name": "Gamestock Arena E-sports",
    "category": "Estabelecimento Gamer",
    "address": "R. Jo�o Neves da Fontoura, 437 - Centro",
    "logo_url": "",
    "tel": "(51) 3509-2870",
    "face": "https://www.facebook.com/gamestockarena/",
    "web": "http://gamestock.com.br",
    "cnpj": "N�o Consta",
    "lat": -29.7642342,
    "long": -51.144891
  },
  {
    "name": "Home Vr",
    "category": "Estabelecimento Gamer",
    "address": "Av. Dr. J�lio Marques Luz, 1599 - Jati�ca",
    "logo_url": "",
    "tel": "(82) 3432-5087",
    "face": "https://www.facebook.com/pg/homevrmaceio",
    "web": "N�o possui",
    "cnpj": "N�o Consta",
    "lat": -9.6535567,
    "long": -35.7136156
  },
  {
    "name": "Clansbr Lan House E Internet",
    "category": "Lan House Gamer",
    "address": "R. Eng. Niemeyer, 255 - Centro",
    "logo_url": "",
    "tel": "(47) 3026-1345",
    "face": "https://www.facebook.com/clansbrofficial/",
    "web": "N�o possui",
    "cnpj": "05.209.904/0001-45",
    "lat": -26.3029698,
    "long": -48.8481706
  },
  {
    "name": "Lan House Network Center",
    "category": "Estabelecimento Gamer",
    "address": "978-990 - R. Jos� F�lix Martins, 1115 - Mantiqueira, Belo Horizonte - MG, 31660-100, Brazil",
    "logo_url": "",
    "tel": "(31) 3458-5273",
    "face": "https://www.facebook.com/lanhousenetworkcenter/",
    "web": "https://lanhousenetworkcenter.business.site/",
    "cnpj": "18.381.280/0001-90",
    "lat": -19.7917834,
    "long": -43.9854615
  },
  {
    "name": "Lan House Space",
    "category": "Estabelecimento Gamer",
    "address": "Av. Gov. J�nio Quadros, 1026 - Parque Sao Francisco, Ferraz de Vasconcelos - SP, 08526-000, Brazil",
    "logo_url": "",
    "tel": "(11) 94582-4784",
    "face": "N�o possui",
    "web": "http://space-lan-ferraz.negocio.site/",
    "cnpj": "N�o Consta",
    "lat": -23.5543938,
    "long": -46.3826746
  },
  {
    "name": "Lords Lan House (tatuape)",
    "category": "Estabelecimento Gamer",
    "address": "R. Coelho Lisboa, 315 - Tatuap�, S�o Paulo - SP, 03323-040, Brazil",
    "logo_url": "",
    "tel": "(11) 2942-8672",
    "face": "https://www.facebook.com/lordslan",
    "web": "N�o possui",
    "cnpj": "07.130.713/0001-19",
    "lat": -23.5469772,
    "long": -46.57221
  },
  {
    "name": "X Lan House",
    "category": "Lan House Gamer",
    "address": "R. Jos� Bonif�cio, 457 - Centro, Mogi das Cruzes - SP, 08710-070, Brazil",
    "logo_url": "",
    "tel": "(11) 4728-1679",
    "face": "https://www.facebook.com/xlanhouse",
    "web": "N�o possui",
    "cnpj": "05.259.443/0001-15",
    "lat": -23.5231388,
    "long": -46.1901268
  },
  {
    "name": "Mega Mix",
    "category": "Estabelecimento Gamer",
    "address": "R. Dr. Hamilton Prado, 186 - 1� Andar - Centro, Franco da Rocha - SP, 07801-000, Brazil",
    "logo_url": "",
    "tel": "(11) 4443-8442",
    "face": "https://www.facebook.com/Megamixfrancodarocha",
    "web": "N�o possui",
    "cnpj": "14.981.390/0001-32",
    "lat": -23.3244448,
    "long": -46.7252462
  },
  {
    "name": "Arena.com Informatica E Lan House",
    "category": "Estabelecimento Gamer",
    "address": "2575 - Av. Jo�o C�sar de Oliveira - Eldorado",
    "logo_url": "",
    "tel": "(31) 2559-1717",
    "face": "https://www.facebook.com/Arenacom-Lan-House-291185197562605/",
    "web": "https://arena-informatica.negocio.site/",
    "cnpj": "05.771.583/0001-78",
    "lat": -19.9411949,
    "long": -44.0435556
  },
  {
    "name": "Dano Games Cyber House",
    "category": "Lan House Gamer",
    "address": "Ant�nio Adriano Guerra, 92 - Centro",
    "logo_url": "",
    "tel": "(54) 3461-3736",
    "face": "https://www.facebook.com/Danogamescyberhouse/",
    "web": "N�o possui",
    "cnpj": "06.056.161/0001-83",
    "lat": -29.2986089,
    "long": -51.4991304
  },
  {
    "name": "Esffera Lan House",
    "category": "Lan House Gamer",
    "address": "R. Chico de Paula, 1099 - Centro, Mogi Gua�u - SP, 13840-005, Brazil",
    "logo_url": "",
    "tel": "(19) 3831-7361",
    "face": "https://www.facebook.com/lanesffera.esffera",
    "web": "N�o possui",
    "cnpj": "06.172.235/0001-47",
    "lat": -22.3606949,
    "long": -46.9446659
  },
  {
    "name": "Action Game",
    "category": "Estabelecimento Gamer",
    "address": "R. da Liberdade, 108 - Centro, Itaquaquecetuba - SP, 08570-170, Brazil",
    "logo_url": "",
    "tel": "(11) 4754-2800",
    "face": "https://www.facebook.com/actiongame/",
    "web": "http://www.actiongame.com.br/",
    "cnpj": "06.540.908/0001-74",
    "lat": -23.4742169,
    "long": -46.3498089
  },
  {
    "name": "Power Pc Games",
    "category": "Estabelecimento Gamer",
    "address": "loja - R. D�lio da Consola��o Rocha, 1032 - Santa Helena, Contagem - MG, 32015-180, Brazil",
    "logo_url": "",
    "tel": "(31) 2567-1366 / 9 75971077 (whatsapp)",
    "face": "https://www.facebook.com/PowerPcGames/",
    "web": "https://powerpcgames.webnode.com/",
    "cnpj": "12.992.967/0001-86",
    "lat": -19.9259677,
    "long": -44.1016544
  },
  {
    "name": "Plannet House",
    "category": "Lan House Gamer",
    "address": "R. dos Jornalistas, 255 - Cidade Vargas, S�o Paulo - SP, 04318-000, Brazil",
    "logo_url": "",
    "tel": "(11) 5021-2802",
    "face": "https://www.facebook.com/plannethouse/",
    "web": "https://plannet-house.negocio.site/?utm_source=gmb&utm_medium=referral",
    "cnpj": "06.881.545/0001-30",
    "lat": -23.6458507,
    "long": -46.6395221
  },
  {
    "name": "Loja Spellbox",
    "category": "Loja de Cards",
    "address": "Rua Dr. Bacelar 527 S�o Paulo",
    "logo_url": "",
    "tel": "(11)950812662",
    "face": "https://www.facebook.com/lojaspellbox/",
    "web": "https://spellbox.com.br/",
    "cnpj": "07.075.103/0001",
    "lat": -23.5988851,
    "long": -46.6479463
  },
  {
    "name": "Conspira��o Do Jogo",
    "category": "Estabelecimento Geek",
    "address": "Estrada de Santa In�s, 3000",
    "logo_url": "",
    "tel": "(11) 4485-4194",
    "face": "https://www.facebook.com/barconspiracaodojogo/",
    "web": "http://www.conspiracaodojogo.com.br/",
    "cnpj": "07.688.220/0001-07",
    "lat": -23.4301938,
    "long": -46.6566842
  },
  {
    "name": "Jeti�s Ch�cara Santo Ant�nio",
    "category": "Estabelecimento Geek",
    "address": "R. Verbo Divino, 1194 � Ch�cara Santo Ant�nio",
    "logo_url": "",
    "tel": "(11)2387-2552",
    "face": "https://www.facebook.com/Jetisburger/",
    "web": "http://jetisburgeregrill.com.br/",
    "cnpj": "08.241.286/0001-09",
    "lat": -23.6323819,
    "long": -46.7068749
  },
  {
    "name": "Jeti�s Pirituba",
    "category": "Estabelecimento Geek",
    "address": "R. Coronel Jos� Rufino Freire, 371 � Vila Maria Eug�nia",
    "logo_url": "",
    "tel": "(11)2389-0004",
    "face": "https://www.facebook.com/Jetisburger/",
    "web": "http://jetisburgeregrill.com.br/",
    "cnpj": "08.241.286/0001-09",
    "lat": -23.4902948,
    "long": -46.7542277
  },
  {
    "name": "Ultimate Arena",
    "category": "Estabelecimento Gamer",
    "address": "SGCV Sul Lojas 110/111",
    "logo_url": "",
    "tel": "(61)3021-2245",
    "face": "https://www.facebook.com/ultimatearenaoficial/",
    "web": "N�o possui",
    "cnpj": "N�o Consta",
    "lat": -15.826653,
    "long": -47.9536036
  },
  {
    "name": "Unypc Informatica & Games",
    "category": "Estabelecimento Gamer",
    "address": "R. Quintino Bocai�va, 200 - Vila Marcondes, Pres. Prudente - SP, 19030-000, Brazil",
    "logo_url": "",
    "tel": "(18) 3221-5159",
    "face": "https://facebook.com/unypc",
    "web": "https://www.unypc.com.br",
    "cnpj": "10.461.346/0001-40",
    "lat": -22.1252571,
    "long": -51.3817802
  },
  {
    "name": "Domain Games",
    "category": "Loja de Cards",
    "address": "R. Domingos de Morais, 1837 - Vila Mariana, S�o Paulo - SP, 04009-003",
    "logo_url": "",
    "tel": "(11) 5084-9864",
    "face": "https://www.facebook.com/DomainGames/",
    "web": "http://www.domaingames.com.br/",
    "cnpj": "08.394.398/0001-08",
    "lat": -23.5922022,
    "long": -46.6359357
  },
  {
    "name": "Arena Infinity Lan House",
    "category": "Estabelecimento Gamer",
    "address": "R. S�o Pedro, 903 - Areias",
    "logo_url": "",
    "tel": "(48) 3034-1612",
    "face": "https://www.facebook.com/ARENAINFINITYLANHOUSE/",
    "web": "N�o possui",
    "cnpj": "08.593.106/0001-58",
    "lat": -27.5563684,
    "long": -48.6240001
  },
  {
    "name": "Garage Burger - Tatuap�",
    "category": "Estabelecimento Geek",
    "address": "R. Emilia Marengo, 870 | Tatuap�",
    "logo_url": "",
    "tel": "(11) 2268-0807",
    "face": "https://www.facebook.com/garageburgeroficial",
    "web": "http://garageburger.com.br/",
    "cnpj": "08.909.575/0001-33",
    "lat": -23.5550124,
    "long": -46.559358
  },
  {
    "name": "Wic Games",
    "category": "Estabelecimento Gamer",
    "address": "CLN 114 Bloco A Loja 16, T�rreo Asa Norte",
    "logo_url": "",
    "tel": "(61) 3551-6100",
    "face": "https://www.facebook.com/WICgamesBrasilia/",
    "web": "N�o possui",
    "cnpj": "N�o Consta",
    "lat": -15.7461248,
    "long": -47.8915293
  },
  {
    "name": "Winningames",
    "category": "Estabelecimento Gamer",
    "address": "R. Tom� Franco, 434 - box 3/4 - Centro, Atibaia - SP, 12940-620, Brazil",
    "logo_url": "",
    "tel": "(11) 2427-4407",
    "face": "https://www.facebook.com/Winningames/",
    "web": "http://www.winningames.com.br/",
    "cnpj": "11.922.012/0001-90",
    "lat": -23.1155394,
    "long": -46.5520057
  },
  {
    "name": "Garage Burger - Vila Prudente",
    "category": "Estabelecimento Geek",
    "address": "Av. Prof. Luiz In�cio Anhaia Mello, 1501 | Vila Prudente",
    "logo_url": "",
    "tel": "(11) 2274-6968",
    "face": "https://www.facebook.com/garageburgeroficial",
    "web": "http://garageburger.com.br/",
    "cnpj": "08.909.575/0001-33",
    "lat": -23.5843266,
    "long": -46.5791304
  },
  {
    "name": "Chq",
    "category": "Loja de Cards",
    "address": "Rua Oratorio 342",
    "logo_url": "",
    "tel": "(11) 4432-1653",
    "face": "https://www.facebook.com/CHQCards/",
    "web": "https://www.chq.com.br/",
    "cnpj": "08.988.225/0001-00",
    "lat": -23.6447011,
    "long": -46.5260713
  },
  {
    "name": "Arena Geek",
    "category": "Estabelecimento Geek",
    "address": "Pra�a Dr. Amaro Marinho, 07, Lagoa Nova",
    "logo_url": "",
    "tel": "(84) 2010-3837",
    "face": "https://www.facebook.com/arenageeknatal/",
    "web": "N�o possui",
    "cnpj": "N�o Consta",
    "lat": -5.8177264,
    "long": -35.2053792
  },
  {
    "name": "Geek Place Araras",
    "category": "Luderia",
    "address": "Rua Jo�o Melari, 47 - Jardim Copacabana, Araras - SP, 13609-317",
    "logo_url": "",
    "tel": "(19) 9910-86967",
    "face": "https://www.facebook.com/geekplaceararas/",
    "web": "N�o possui",
    "cnpj": "09.216.200/0001-50",
    "lat": -22.3782497,
    "long": -47.3796825
  },
  {
    "name": "Manuten��o De Computadores Cyber Connect Lan House",
    "category": "Lan House Gamer",
    "address": "R. Primeiro de Mar�o, 905 - Centro",
    "logo_url": "",
    "tel": "(51) 3509-0733",
    "face": "http://cyberconnectinformatica.negocio.site/",
    "web": "N�o possui",
    "cnpj": "09.483.209/0001-28",
    "lat": -22.9013187,
    "long": -43.1764795
  },
  {
    "name": "Arena Hitech",
    "category": "Lan House Gamer",
    "address": "AV. DESEMBARGADOR MAYNARD, 874",
    "logo_url": "",
    "tel": "(79) 99612.8937",
    "face": "https://www.facebook.com/arenahitech",
    "web": "http://arenahitech.com",
    "cnpj": "10.282.098/0001-70",
    "lat": -10.9185222,
    "long": -37.0655593
  },
  {
    "name": "Overzone Extreme Lan House",
    "category": "Lan House Gamer",
    "address": "Rua Dr. Bozano, 1017 - Centro",
    "logo_url": "",
    "tel": "(55) 3026-4686",
    "face": "https://www.facebook.com/overzoneextreme/",
    "web": "N�o possui",
    "cnpj": "10.396.493/0001-84",
    "lat": -29.687372,
    "long": -53.8107597
  },
  {
    "name": "Xplace",
    "category": "Loja de Cards",
    "address": "R. Jord�nia, 32 - Vila Guilhermina, S�o Paulo - SP, 03543-000",
    "logo_url": "",
    "tel": "(11) 3798-0230",
    "face": "https://www.facebook.com/xplaceoficial/",
    "web": "https://www.xplace.com.br/",
    "cnpj": "10.650.787/0001-90",
    "lat": -23.5325051,
    "long": -46.5158295
  },
  {
    "name": "Cat Pub",
    "category": "Estabelecimento Geek",
    "address": "Rua C/E (Constela��o de Orion), N�1, Morada do Sol - Aleixo",
    "logo_url": "",
    "tel": "N�o Consta",
    "face": "https://www.facebook.com/pg/catpubmao",
    "web": "N�o possui",
    "cnpj": "N�o Consta",
    "lat": -3.0960006,
    "long": -59.9937974
  },
  {
    "name": "Millennium Cards & Games",
    "category": "Loja de Cards",
    "address": "Rua Jacquey, 125 - Rudge Ramos, S�o Bernardo do Campo - SP, 09634-000, Brazil",
    "logo_url": "",
    "tel": "(11) 2534-9812",
    "face": "https://www.facebook.com/millenniumcg/",
    "web": "http://www.millenniumcg.com.br/",
    "cnpj": "10.846.138/0001-60",
    "lat": -23.6539021,
    "long": -46.5703178
  },
  {
    "name": "Vitrine",
    "category": "Estabelecimento Geek",
    "address": "Rua Augusta, 1221",
    "logo_url": "",
    "tel": "(11) 3969-0879",
    "face": "https://www.facebook.com/VitrineDaAugusta/",
    "web": "N�o possui",
    "cnpj": "11.008.999/0001-31",
    "lat": -23.5549244,
    "long": -46.656585
  },
  {
    "name": "Lan House Mar� Alta",
    "category": "Lan House Gamer",
    "address": "Av. Pref. Barreto Viana, 741 - Cec�lia",
    "logo_url": "",
    "tel": "(51) 3045-6040",
    "face": "https://www.facebook.com/lanhousemarealta",
    "web": "N�o possui",
    "cnpj": "11.686.273/0001-58",
    "lat": -30.0733066,
    "long": -51.102451
  },
  {
    "name": "Checkpoint Comedoria Geek",
    "category": "Estabelecimento Geek",
    "address": "Rua General Jos� Seme�o, 115",
    "logo_url": "",
    "tel": "(81) 3090-6068",
    "face": "https://www.instagram.com/checkpointgeek/",
    "web": "checkpoint.rec.br",
    "cnpj": "28.639.639/0001-30",
    "lat": -8.0551517,
    "long": -34.8867925
  },
  {
    "name": "Web Lan House",
    "category": "Lan House Gamer",
    "address": "R. Mal. Floriano, N�2452 - Lourdes, Gov. Valadares - MG, 35030-330, Brazil",
    "logo_url": "",
    "tel": "(33) 99925-9272",
    "face": "https://www.facebook.com/weblanhousegv/",
    "web": "http://weblanhouse.business.site/",
    "cnpj": "12.689.189/0001-50",
    "lat": -18.8659683,
    "long": -41.957949
  },
  {
    "name": "Cnb Game House",
    "category": "Gaming House",
    "address": "Av Doutor Lino De Moraes Leme, 1061",
    "logo_url": "",
    "tel": "(11) 2366-3183",
    "face": "https://www.facebook.com/CNB.eSc/",
    "web": "https://cnb.gg/",
    "cnpj": "12.808.542/0001-74",
    "lat": -23.6411485,
    "long": -46.6652865
  },
  {
    "name": "Elf Bar E Burger",
    "category": "Estabelecimento Geek",
    "address": "Av. Elisio Cordeiro De Siqueira, 909",
    "logo_url": "",
    "tel": "(11) 2364-6438",
    "face": "https://www.facebook.com/BarBurguerElf/",
    "web": "N�o possui",
    "cnpj": "12.929.049/0001-02",
    "lat": -23.4984998,
    "long": -46.7471657
  },
  {
    "name": "X-ray Lan House",
    "category": "Lan House Gamer",
    "address": "Av. Expedito Garc�a, 107 - Campo Grande, Cariacica - ES, 29146-200, Brazil",
    "logo_url": "",
    "tel": "(27) 3343-5779",
    "face": "https://www.facebook.com/xraylanhouse",
    "web": "http://www.xraylanhouse.com.br/lojas/campo-grande",
    "cnpj": "13.069.665/0001-01",
    "lat": -20.3431574,
    "long": -40.3877512
  },
  {
    "name": "Xogunnet Lan",
    "category": "Lan House Gamer",
    "address": "R. Dr. Area Le�o, 1051 - Nossa Sra. das Gracas",
    "logo_url": "",
    "tel": "(86) 3303-2298",
    "face": "https://www.facebook.com/XogunNet/",
    "web": "http://xogunnet.com.br/",
    "cnpj": "13.119.386/0001-05",
    "lat": -5.0978961,
    "long": -42.8047327
  },
  {
    "name": "Zak33 Hamburgueria",
    "category": "Estabelecimento Geek",
    "address": "Estr. do Encanamento, 1135 - Casa Forte",
    "logo_url": "",
    "tel": "(81) 3314-6637",
    "face": "https://www.facebook.com/zak33hamburgueria",
    "web": "N�o possui",
    "cnpj": "13.323.745/0001-33",
    "lat": -8.0301143,
    "long": -34.9204029
  },
  {
    "name": "Anime Games E Toys",
    "category": "Luderia",
    "address": "Av. Gen. Carneiro, 654 - Jardim Costa Dias, Sorocaba - SP, 18043-004",
    "logo_url": "",
    "tel": "(15) 3346-6777",
    "face": "https://www.facebook.com/animesgamestoys/",
    "web": "https://www.cardshall.com.br",
    "cnpj": "13.351.329/0001-49",
    "lat": -23.5042521,
    "long": -47.4746812
  },
  {
    "name": "Magic Games Natal",
    "category": "Estabelecimento Gamer",
    "address": "Av. Roberto Freire, 340, Shopping Cidade Jardim - Capim Macio",
    "logo_url": "",
    "tel": "(84) 3211-1208",
    "face": "https://www.facebook.com/MagicGamesNatal",
    "web": "https://www.magicgamesnatal.com.br/",
    "cnpj": "13.728.794/0002-37",
    "lat": -5.8507715,
    "long": -35.2056312
  },
  {
    "name": "Games  Lan House",
    "category": "Estabelecimento Geek",
    "address": "Rua Independ�ncia, 99 - Centro",
    "logo_url": "",
    "tel": "(54)2628-4190",
    "face": "https://www.facebook.com/gameslan/",
    "web": "N�o possui",
    "cnpj": "N�o Consta",
    "lat": -29.2258843,
    "long": -51.350684
  },
  {
    "name": "Geek Store Brasil",
    "category": "Loja de Cards",
    "address": "Av. Jo�o Paulo II, 1893 - Marco",
    "logo_url": "",
    "tel": "(91) 98988-7335",
    "face": "https://www.facebook.com/geekstorebrasil/",
    "web": "http://www.geekstorebrasil.com.br",
    "cnpj": "14.806.193/0001-87",
    "lat": -1.4328138,
    "long": -48.4526928
  },
  {
    "name": "Place Games",
    "category": "Estabelecimento Geek",
    "address": "R. Martim Francisco, 137 - Santa Paula, S�o Caetano do Sul - SP, 09541-330, Brazil",
    "logo_url": "",
    "tel": "(11) 2311-2231",
    "face": "http://www.facebook.com/lojaplacegames",
    "web": "http://www.placegames.com.br/",
    "cnpj": "14.879.767/0001-47",
    "lat": -23.6176378,
    "long": -46.561442
  },
  {
    "name": "Strik Lan House",
    "category": "Estabelecimento Gamer",
    "address": "Av. Vinte e Cinco de Julho, 350 - Centro",
    "logo_url": "",
    "tel": "(54) 3444-3404",
    "face": "https://www.facebook.com/curtostrik/",
    "web": "http://systemstrik.com.br/",
    "cnpj": "14.975.374/0001-37",
    "lat": -31.7269101,
    "long": -52.348016
  },
  {
    "name": "Geek Burguer �gua Verde",
    "category": "Estabelecimento Geek",
    "address": "Av. Rep�blica Argentina, 1469",
    "logo_url": "",
    "tel": "(41) 3085-2626",
    "face": "https://www.facebook.com/geekburguer/",
    "web": "https://geekburguer.com/",
    "cnpj": "31.021.000/0001-00",
    "lat": -25.4595046,
    "long": -49.2888564
  },
  {
    "name": "Geek Burguer Batel",
    "category": "Estabelecimento Geek",
    "address": "Alameda Dr. Carlos de Carvalho, 805",
    "logo_url": "",
    "tel": "(41) 3093-7774",
    "face": "https://www.facebook.com/geekburguer/",
    "web": "https://geekburguer.com/",
    "cnpj": "24.885.521/0001-31",
    "lat": -25.4342741,
    "long": -49.2826182
  },
  {
    "name": "Geek Burguer Champagnat",
    "category": "Estabelecimento Geek",
    "address": "Alameda J�lia da Costa, 2964",
    "logo_url": "",
    "tel": "(41) 3151-3282",
    "face": "https://www.facebook.com/geekburguer/",
    "web": "https://geekburguer.com/",
    "cnpj": "29.301.788/0001-58",
    "lat": -25.4376692,
    "long": -49.305396
  },
  {
    "name": "Geek Burguer Juvev�",
    "category": "Estabelecimento Geek",
    "address": "R. Augusto Stresser, 318",
    "logo_url": "",
    "tel": "(41) 3538-8081",
    "face": "https://www.facebook.com/geekburguer/",
    "web": "https://geekburguer.com/",
    "cnpj": "29.488.807/0001-05",
    "lat": -25.4175986,
    "long": -49.2586608
  },
  {
    "name": "Geek Power",
    "category": "Estabelecimento Geek",
    "address": "Av. Dona Floriana, 418 - Centro",
    "logo_url": "",
    "tel": "(35) 9900-2949",
    "face": "https://www.facebook.com/pg/geekpowergxp",
    "web": "https://www.geekpowergxp.com",
    "cnpj": "24.836.089/0001-99",
    "lat": -21.3102317,
    "long": -46.7121497
  },
  {
    "name": "Orgutal Casa De Jogos",
    "category": "Luderia",
    "address": "CLN 205, bloco B, loja 11, Asa Norte Com�rcio Local Norte 205 2� andar - Asa Norte",
    "logo_url": "",
    "tel": "(61) 99699-5999 - (61) 3045-4347",
    "face": "https://www.facebook.com/orgutalcasadejogos/",
    "web": "N�o possui",
    "cnpj": "15.137.527/0001-30",
    "lat": -15.770433,
    "long": -47.879528
  },
  {
    "name": "Good Game E-sport Bar",
    "category": "Estabelecimento Geek",
    "address": "R. Mourato Coelho, 992 - Pinheiros, S�o Paulo - SP, 05417-001",
    "logo_url": "",
    "tel": "(11) 98570-9470",
    "face": "https://www.facebook.com/GGesportsbar/",
    "web": "N�o possui",
    "cnpj": "27.607.046/0001-20",
    "lat": -23.5590839,
    "long": -46.6904503
  },
  {
    "name": "Lan House Mario Games",
    "category": "Lan House Gamer",
    "address": "R. Bahia, 252 - S�o Sebastiao, Barbacena - MG, 36202-286, Brazil",
    "logo_url": "",
    "tel": "(32) 98811-1506",
    "face": "https://www.facebook.com/youkaisamuel/",
    "web": "N�o possui",
    "cnpj": "15.140.111/0001-70",
    "lat": -21.212775,
    "long": -43.7750506
  },
  {
    "name": "Taverna Nerd Comic Shop",
    "category": "Luderia",
    "address": "Av. Castelo Branco, 1016 - 1� andar - Cachoeirinha, Manaus - AM, 69065-011, Brazil",
    "logo_url": "",
    "tel": "(92) 9930 - 90425",
    "face": "https://www.facebook.com/tavernanerdshop/",
    "web": "https://taverna-nerd.negocio.site/",
    "cnpj": "15.779.054/0001-74",
    "lat": -3.126563,
    "long": -60.007452
  },
  {
    "name": "Tabul�ndia",
    "category": "Luderia",
    "address": "Rua Jo�o Pessoa, 2008, sala 02",
    "logo_url": "",
    "tel": "(47) 99982-6109",
    "face": "https://www.facebook.com/Tabulandia/",
    "web": "https://tabulandia.com.br/",
    "cnpj": "15.830.427/0001-94",
    "lat": -26.9184708,
    "long": -49.0921722
  },
  {
    "name": "Lan House Kadosh",
    "category": "Lan House Gamer",
    "address": "R. Rua Rio Mucuim, 30 - S�o Jos� Oper�rio, Manaus - AM, 69086-120, Brazil",
    "logo_url": "",
    "tel": "(92) 99200-2951",
    "face": "https://www.facebook.com/kadosh.games/",
    "web": "N�o possui",
    "cnpj": "16.605.530/0001-01",
    "lat": -3.0585217,
    "long": -59.9550533
  },
  {
    "name": "Plug Net",
    "category": "Lan House Gamer",
    "address": "R. Alberto Silva, 1329 - Lagoa Seca, Natal - RN, 59022-100",
    "logo_url": "",
    "tel": "(84) 98745-7564",
    "face": "https://www.facebook.com/plugnetlanhousenatal/",
    "web": "N�o possui",
    "cnpj": "16.626.456/0001-00",
    "lat": -5.809375,
    "long": -35.206185
  },
  {
    "name": "X Games",
    "category": "Lan House Gamer",
    "address": "A 325 - R. C�nego Monte Raso - Centro, Baependi - MG, 37443-000, Brazil",
    "logo_url": "",
    "tel": "(35) 3343-1310",
    "face": "https://www.facebook.com/X-Games-Baependi-2125979984121187/",
    "web": "https://xgames-bae.business.site/",
    "cnpj": "17.031.206/0001-81",
    "lat": -21.9598193,
    "long": -44.8917187
  },
  {
    "name": "Big Kahuna",
    "category": "Estabelecimento Geek",
    "address": "Alameda Lorena, 53 - Jardim Paulista, S�o Paulo - SP, 01424-002",
    "logo_url": "",
    "tel": "(11) 3051-6268",
    "face": "https://www.facebook.com/bigkahunaburgerr/",
    "web": "N�o possui",
    "cnpj": "17.269.809/0001-16",
    "lat": -23.5734954,
    "long": -46.6560535
  },
  {
    "name": "Redzone Cards E Games",
    "category": "Loja de Cards",
    "address": "Avenida Edilson Brasil Soares, 770 - Segundo piso, Sala 3 - Edson Queiroz",
    "logo_url": "",
    "tel": "(85) 3085-2577",
    "face": "https://www.facebook.com/redzonecg/",
    "web": "https://www.redzonecg.com.br/",
    "cnpj": "17.423.360/0001-07",
    "lat": -3.789442,
    "long": -38.479283
  },
  {
    "name": "Carcassonne Pub",
    "category": "Estabelecimento Geek",
    "address": "Asa Norte Com�rcio Local Norte 407 Loja 37 - Asa Norte",
    "logo_url": "",
    "tel": "(61) 99968-4186",
    "face": "https://www.facebook.com/CarcassonnePub/",
    "web": "http://www.carcassonnepub.com.br",
    "cnpj": "17.622.076/0001-51",
    "lat": -15.7658802,
    "long": -47.8771563
  },
  {
    "name": "Pixel Vr Virtual Reality Arcade",
    "category": "Estabelecimento Gamer",
    "address": "Rua Apucarana, 739 - Tatuap�, S�o Paulo - SP, 03311-000, Brazil",
    "logo_url": "",
    "tel": "(11) 3854-0044",
    "face": "https://www.facebook.com/Pixelrealidadevirtual/",
    "web": "http://www.pixelvr.com.br/",
    "cnpj": "17.685.815/0001-54",
    "lat": -23.544718,
    "long": -46.5636526
  },
  {
    "name": "Limited Edition",
    "category": "Estabelecimento Geek",
    "address": "R. da Consola��o, 2753 - Jardins, S�o Paulo - SP, 01416-001",
    "logo_url": "",
    "tel": "(11) 3081-0128",
    "face": "https://www.facebook.com/LojaLimitedEdition/",
    "web": "N�o possui",
    "cnpj": "08.652.247/0001-02",
    "lat": -23.5576303,
    "long": -46.6648442
  },
  {
    "name": "Br Web Cyber",
    "category": "Lan House Gamer",
    "address": "Av. Edith In�cia da Silva, N�. 340 Antiga - Av. dos Bandeirantes - Vila Paulista, Mogi das Cruzes - SP, 08744-020, Brazil",
    "logo_url": "",
    "tel": "(11) 2668-8134",
    "face": "https://www.facebook.com/Bruwebcyber/",
    "web": "https://brwebcyber.business.site/",
    "cnpj": "18.119.486/0001-47",
    "lat": -23.5512838,
    "long": -46.2216631
  },
  {
    "name": "Liga Arena",
    "category": "Loja de Cards",
    "address": "Rua Padre Firmino Dias Xavier, 111 (623,39 km) 12525-000 Potim",
    "logo_url": "",
    "tel": "(12) 3311-0010",
    "face": "https://www.facebook.com/LigaArenaa/",
    "web": "https://www.ligaarena.com.br/",
    "cnpj": "18.584.945/0001-63",
    "lat": -22.8418422,
    "long": -45.251591
  },
  {
    "name": "Caverna",
    "category": "Estabelecimento Geek",
    "address": "Rua Assis Bueno, 26 loja, Botafogo",
    "logo_url": "",
    "tel": "(21) 3507-5600",
    "face": "https://www.facebook.com/666caverna",
    "web": "https://www.caverna.net.br/",
    "cnpj": "19.296.333/0001-38",
    "lat": -22.956632,
    "long": -43.1847736
  },
  {
    "name": "Metropoly Bar",
    "category": "Estabelecimento Geek",
    "address": "Av. Professor At�lio Martini, 469 - Cidade Universit�ria, Campinas - SP, 13083-830, Brazil",
    "logo_url": "",
    "tel": "(19) 3324-2952",
    "face": "https://www.facebook.com/metropolybar",
    "web": "http://metropoly.bar/",
    "cnpj": "19.409.828/0001-26",
    "lat": -22.8216556,
    "long": -47.0767417
  },
  {
    "name": "Master Games",
    "category": "Estabelecimento Geek",
    "address": "Rua Jabuti 179",
    "logo_url": "",
    "tel": "(45) 3029-1837",
    "face": "https://www.facebook.com/mastergamesfoz/",
    "web": "N�o possui",
    "cnpj": "N�o Consta",
    "lat": -25.4870614,
    "long": -54.5130566
  },
  {
    "name": "Bazar De Bagd�",
    "category": "Loja de Cards",
    "address": "R. Dr. Gabriel Piza, 434 - Santana, S�o Paulo - SP, 02036-011",
    "logo_url": "",
    "tel": "(11) 2659-1888",
    "face": "https://www.facebook.com/BazarDeBagda/",
    "web": "https://bazardebagda.com.br/",
    "cnpj": "19.702.607/0001-41",
    "lat": -23.5022985,
    "long": -46.6219165
  },
  {
    "name": "Loja Player Vs Player",
    "category": "Estabelecimento Geek",
    "address": "Asa Norte Com�rcio Local Norte 103 bloco B loja 62 - Asa Norte",
    "logo_url": "",
    "tel": "(61) 3253-7116",
    "face": "https://www.facebook.com/lojapvp/",
    "web": "http://www.pvponline.com.br",
    "cnpj": "20.167.811/0001-99",
    "lat": -15.759018,
    "long": -47.8882618
  },
  {
    "name": "Multiverse Geek",
    "category": "Estabelecimento Geek",
    "address": "Avenida Engenheiro Roberto Freire, 481 CCAB Sul, Bloco 4 Loja 11",
    "logo_url": "",
    "tel": "(84) 3322-1701",
    "face": "https://www.facebook.com/pg/MultiverseGeekStore",
    "web": "N�o possui",
    "cnpj": "20.754.553/0001-47",
    "lat": -5.8514227,
    "long": -35.2038395
  },
  {
    "name": "Inside Games",
    "category": "Loja de Cards",
    "address": "CRS 513, Bloco B 54, Asa Sul Com�rcio Residencial Sul 513 - Asa Sul",
    "logo_url": "",
    "tel": "(61) 3551-0266",
    "face": "https://www.facebook.com/InsideGameStore/",
    "web": "https://insidegamestore.com.br/",
    "cnpj": "20.390.186/0001-40",
    "lat": -15.8229155,
    "long": -47.9201199
  },
  {
    "name": "Vivo Keyd Gaming House",
    "category": "Gaming House",
    "address": "Av. Engenheiro Lu�s Carlos Berrini, 1376",
    "logo_url": "",
    "tel": "N�o consta",
    "face": "https://www.facebook.com/vivokeyd",
    "web": "https://www.gokeyd.com/",
    "cnpj": "20.414.054/0001-00",
    "lat": -23.6085754,
    "long": -46.6945653
  },
  {
    "name": "L�dica",
    "category": "Luderia",
    "address": "R. Henrique Savi, 12-15 - 4 - Vila Nova Cidade Universitaria, Bauru - SP, 17012-205, Brazil",
    "logo_url": "",
    "tel": "(14) 3204-9342",
    "face": "https://www.facebook.com/loja.ludica.bauru/",
    "web": "http://www.lojaludica.com.br",
    "cnpj": "20.611.706/0001-5",
    "lat": -22.3403125,
    "long": -49.0511333
  },
  {
    "name": "Academia De Jogos",
    "category": "Luderia",
    "address": "Av. Engenheiro George Corbisier 170",
    "logo_url": "",
    "tel": "(11) 3554-3221",
    "face": "https://www.facebook.com/academiadejogos/",
    "web": "https://www.academiadejogos.com.br/",
    "cnpj": "20.744.609/0001-82",
    "lat": -23.6383432,
    "long": -46.6422196
  },
  {
    "name": "Play Time",
    "category": "Estabelecimento Geek",
    "address": "R. Ven�ncio Aires, 320 - Centro, Itapetininga - SP, 18200-013",
    "logo_url": "",
    "tel": "(15) 3272-1929",
    "face": "https://www.facebook.com/playtimeitapetininga/",
    "web": "N�o possui",
    "cnpj": "N�o Consta",
    "lat": -23.5913305,
    "long": -48.0517979
  },
  {
    "name": "Video Game Rock Bar",
    "category": "Estabelecimento Geek",
    "address": "R. Aparecida, 675 - Jardim Santa Ros�lia",
    "logo_url": "",
    "tel": "(15) 3442-8101",
    "face": "-",
    "web": "-",
    "cnpj": "21.002.766/0001-85",
    "lat": -23.4879429,
    "long": -47.4525445
  },
  {
    "name": "Saloon",
    "category": "Estabelecimento Geek",
    "address": "Avenida Mascote, 991",
    "logo_url": "",
    "tel": "(11) 5677-6131",
    "face": "https://www.facebook.com/pg/SaloonPinballBar",
    "web": "http://www.saloon.com.br/",
    "cnpj": "N�o Consta",
    "lat": -23.6465192,
    "long": -46.6705158
  },
  {
    "name": "S�o Jogue",
    "category": "Estabelecimento Geek",
    "address": "Vilas - Av. Praia de Itapu�, 343",
    "logo_url": "",
    "tel": "(71) 99298-5046",
    "face": "https://www.facebook.com/saojogue/",
    "web": "https://saojogue.com.br/",
    "cnpj": "N�o Consta",
    "lat": -12.8823599,
    "long": -38.3035364
  },
  {
    "name": "S�o Jogue",
    "category": "Estabelecimento Geek",
    "address": "Shopping Bela Vista, L2",
    "logo_url": "",
    "tel": "(71) 99298-5046",
    "face": "https://www.facebook.com/saojogue/",
    "web": "https://saojogue.com.br/",
    "cnpj": "N�o Consta",
    "lat": -12.9702226,
    "long": -38.4741374
  },
  {
    "name": "S�o Jogue",
    "category": "Estabelecimento Geek",
    "address": "Av. Paulo VI, 1535 - Pituba",
    "logo_url": "",
    "tel": "(71) 99298-5046",
    "face": "https://www.facebook.com/saojogue/",
    "web": "https://saojogue.com.br/",
    "cnpj": "N�o Consta",
    "lat": -12.9903162,
    "long": -38.4568855
  },
  {
    "name": "Rocketz Curitiba",
    "category": "Estabelecimento Gamer",
    "address": "R. Dr. Alexandre Gutierrez, 990 - loja 3 - Batel",
    "logo_url": "",
    "tel": "(41) 3528-6515",
    "face": "https://www.facebook.com/RocketzSpaceCuritiba/",
    "web": "https://rocketz.com.br/store/rocketz-store-curitiba",
    "cnpj": "21.073.174/0001-54",
    "lat": -25.4455297,
    "long": -49.2863633
  },
  {
    "name": "Load Or Cast - Card, Games E Muito Mais",
    "category": "Loja de Cards",
    "address": "R. Dr. Augusto Pestana, 311 - S�o Pelegrino",
    "logo_url": "",
    "tel": "(54) 99684-6402",
    "face": "https://www.facebook.com/loadorcast",
    "web": "N�o possui",
    "cnpj": "21.846.235/0001-79",
    "lat": -29.171715,
    "long": -51.1898975
  },
  {
    "name": "S�t�o Boardgame Club",
    "category": "Estabelecimento Geek",
    "address": "Rua Achiles Tomazeli, 271-D - Jardim It�lia, Chapec� - SC, 89814-055, Brazil",
    "logo_url": "",
    "tel": "(49) 99956-3199",
    "face": "https://www.facebook.com/sotaobgc/",
    "web": "N�o possui",
    "cnpj": "N�o Consta",
    "lat": -27.1124267,
    "long": -52.6150648
  },
  {
    "name": "Hp Geek Bar N Burguer",
    "category": "Estabelecimento Geek",
    "address": "R. Dr. Lu�s de Faria, 116 - Gonzaga, Santos - SP, 11060-451",
    "logo_url": "",
    "tel": "(13) 3349-5770",
    "face": "https://www.facebook.com/bargeekhp/",
    "web": "N�o possui",
    "cnpj": "22.320.817/0001-80",
    "lat": -23.962867,
    "long": -46.3334086
  },
  {
    "name": "Imp�rio Gamer",
    "category": "Estabelecimento Gamer",
    "address": "Pra�a Dr. Amaro Marinho, 07 - Lagoa Nova, Natal - RN, 59075-070",
    "logo_url": "",
    "tel": "(84) 99898-5822",
    "face": "https://www.facebook.com/pg/ImperioNatal/",
    "web": "http://www.imperiogamer.com.br/",
    "cnpj": "22.579.835/0001-80",
    "lat": -5.8177264,
    "long": -35.2053792
  },
  {
    "name": "Taverna Medieval",
    "category": "Estabelecimento Geek",
    "address": "Rua Gandavo, 456 - Vila Clementino",
    "logo_url": "",
    "tel": "(11) 4114-2816",
    "face": "https://www.facebook.com/tavernamedieval/",
    "web": "http://www.tavernamedieval.com.br",
    "cnpj": "22.696.874/0001-68",
    "lat": -23.5916659,
    "long": -46.6437394
  },
  {
    "name": "Burgerbits",
    "category": "Estabelecimento Geek",
    "address": "Av Dom Pedro I, 110",
    "logo_url": "",
    "tel": "N�o Informado",
    "face": "https://www.facebook.com/burgerbitssa/",
    "web": "https://www.burgerbits.com.br",
    "cnpj": "22.721.932/0001-66",
    "lat": -23.6656231,
    "long": -46.515115
  },
  {
    "name": "Tabuleria",
    "category": "Luderia",
    "address": "Av. Independ�ncia, 1587 - Renascen�a",
    "logo_url": "",
    "tel": "(51) 3902-5477",
    "face": "https://www.facebook.com/lojatabuleria/",
    "web": "N�o possui",
    "cnpj": "22.887.596/0001-26",
    "lat": -21.211148,
    "long": -47.825915
  },
  {
    "name": "The House Food & Fun",
    "category": "Estabelecimento Geek",
    "address": "Av. do Contorno, 5727 - Savassi",
    "logo_url": "",
    "tel": "(31) 8514-0576 / (31) 3337-8874",
    "face": "https://www.facebook.com/thehousefoodnfun/",
    "web": "https://www.instagram.com/thehouseoficial/",
    "cnpj": "22.985.699/0001-29",
    "lat": -19.9399608,
    "long": -43.9307219
  },
  {
    "name": "Bits Pub",
    "category": "Estabelecimento Geek",
    "address": "Lauro Linhares, 897, Trindade",
    "logo_url": "",
    "tel": "(48) 3024-1665",
    "face": "https://www.facebook.com/pg/bitspub/",
    "web": "N�o possui",
    "cnpj": "23.096.793/0001-90",
    "lat": -27.5871208,
    "long": -48.5241294
  },
  {
    "name": "Tio G�ra Brinquedos",
    "category": "Estabelecimento Geek",
    "address": "Av. Pref. Severino Bezerra Cabral, 1419 - Mirante",
    "logo_url": "",
    "tel": "(83) 99951-0296",
    "face": "https://www.facebook.com/tiogerabrinquedos/",
    "web": "https://www.tiogera.com.br/",
    "cnpj": "14.455.814/0001-25",
    "lat": -7.235131,
    "long": -35.8677598
  },
  {
    "name": "Jackpot Jogos",
    "category": "Luderia",
    "address": "R. Mal. Deodoro, 1617 - loja 1 - Centro",
    "logo_url": "",
    "tel": "(16) 3419-5909",
    "face": "https://www.facebook.com/jackpotjogos",
    "web": "N�o possui",
    "cnpj": "23.111.118/0001-92",
    "lat": -23.7124469,
    "long": -46.550266
  },
  {
    "name": "Blackout Card Games",
    "category": "Luderia",
    "address": "R. Uruguai, 91 - Centro",
    "logo_url": "",
    "tel": "(47) 3046-3266",
    "face": "https://www.facebook.com/Blackoutcardgames/",
    "web": "https://www.blackoutcardgames.com.br",
    "cnpj": "23.214.641/0001-44",
    "lat": -30.027467,
    "long": -51.2293386
  },
  {
    "name": "Game Of Boards",
    "category": "Luderia",
    "address": "Rua Benjamin Constant, 48 - Gl�ria, Rio de Janeiro - RJ, 20241-150, Brazil",
    "logo_url": "",
    "tel": "(21) 2557-7277",
    "face": "https://www.facebook.com/lojagameboards/",
    "web": "http://www.gameofboards.com.br/",
    "cnpj": "23.304.941/0001-14",
    "lat": -22.9206186,
    "long": -43.1784961
  },
  {
    "name": "Dalaran Games",
    "category": "Luderia",
    "address": "R. Fernando de Noronha, 212 fundos - Atiradores",
    "logo_url": "",
    "tel": "(47) 3422-6393",
    "face": "https://www.facebook.com/dalarangames",
    "web": "N�o possui",
    "cnpj": "23.347.042/0001-07",
    "lat": -26.3040724,
    "long": -48.8545537
  },
  {
    "name": "Xeque-mate",
    "category": "Estabelecimento Geek",
    "address": "R. Miosotes, 750 - J�quei",
    "logo_url": "",
    "tel": "(86) 98112-0077",
    "face": "https://www.facebook.com/xequematethe/",
    "web": "https://xeque-mate.negocio.site/",
    "cnpj": "03.376.319/0001-04",
    "lat": -5.0744934,
    "long": -42.7941121
  },
  {
    "name": "Al�m Do Muro",
    "category": "Luderia",
    "address": "Av. Jos� Benassi - Parque Res. Jundia� - SP, 13213-085, Brazil",
    "logo_url": "",
    "tel": "N�o Informado",
    "face": "https://www.facebook.com/alemdomuro/",
    "web": "https://www.alemdomuro.com.br/",
    "cnpj": "23.595.389/0001-60",
    "lat": -23.1524088,
    "long": -47.0137991
  },
  {
    "name": "Star Geek Boardgames",
    "category": "Estabelecimento Geek",
    "address": "R. do Serimbura, 77 - Vila Guaianazes, S�o Jos� dos Campos - SP, 12243-360",
    "logo_url": "",
    "tel": "(12) 3923-3979",
    "face": "https://www.facebook.com/pg/stargeekboardgames",
    "web": "https://www.stargeekboardgames.com.br/",
    "cnpj": "23.639.518/0001-75",
    "lat": -23.204184,
    "long": -45.8971826
  },
  {
    "name": "Medieval Cards",
    "category": "Loja de Cards",
    "address": "R. Em�lio Mallet, 191 - Tatuap�, S�o Paulo - SP, 03320-000",
    "logo_url": "",
    "tel": "(11) 2214-7093",
    "face": "https://www.facebook.com/medievalcards/",
    "web": "https://www.medievalcards.com.br/",
    "cnpj": "23.851.613/0001-38",
    "lat": -23.5476252,
    "long": -46.5719163
  },
  {
    "name": "Taverna Corvo Negro",
    "category": "Estabelecimento Geek",
    "address": "Rua Samarra n�mero, 42 - Jardim Shangri-l�",
    "logo_url": "",
    "tel": "(65) 99206-3899",
    "face": "https://www.facebook.com/pg/tavernacorvonegro",
    "web": "N�o informado",
    "cnpj": "23.854.989/0001-04",
    "lat": -15.6248625,
    "long": -56.0666225
  },
  {
    "name": "Monster Games",
    "category": "Loja de Cards",
    "address": "Rio Branco, 678 - Centro, Salto - SP, 13320-270",
    "logo_url": "",
    "tel": "(11) 4028-3413",
    "face": "https://www.facebook.com/Monstergamessalto/",
    "web": "www.monstergamescards.com",
    "cnpj": "23.870.102/0001-63",
    "lat": -23.2024842,
    "long": -47.2924626
  },
  {
    "name": "Alligator Lan House",
    "category": "Lan House Gamer",
    "address": "R. Pernambuco, 340 - Boqueir�o, Praia Grande - SP, 11700-010, Brazil",
    "logo_url": "",
    "tel": "(13) 3474-3307",
    "face": "https://www.facebook.com/AlligatorLanHouse/",
    "web": "http://alligatorlanhouse.000webhostapp.com/",
    "cnpj": "02.277.560/0001-13",
    "lat": -24.010304,
    "long": -46.4133471
  },
  {
    "name": "Alpha Arena",
    "category": "Lan House Gamer",
    "address": "Av. Gov. Lu�s Rocha, 1939 - Monte Castelo",
    "logo_url": "",
    "tel": "(98) 99228-5166",
    "face": "https://www.facebook.com/Alpha-Arena--816138478743206/",
    "web": "N�o possui",
    "cnpj": "N�o Consta",
    "lat": -2.5302445,
    "long": -44.2801155
  },
  {
    "name": "Wolf Lan House",
    "category": "Lan House Gamer",
    "address": "R. Florian�polis, 4071 - Mathias Velho",
    "logo_url": "",
    "tel": "(51) 99712-4228",
    "face": "https://www.facebook.com/WolfLanHouse/",
    "web": "https://wolflan.negocio.site/",
    "cnpj": "23.911.785/0001-50",
    "lat": -29.905613,
    "long": -51.2221652
  },
  {
    "name": "Arena Games Lan House E Inform�tica",
    "category": "Lan House Gamer",
    "address": "R. Um, 20 - Bonsucesso, Rio de Janeiro - RJ, 21044-750, Brazil",
    "logo_url": "",
    "tel": "(21) 99451-9731",
    "face": "https://www.facebook.com/linuxmaniaco",
    "web": "http://www.arenagames.net.br/",
    "cnpj": "N�o Consta",
    "lat": -22.8557677,
    "long": -43.2433117
  },
  {
    "name": "Jogaburger",
    "category": "Estabelecimento Geek",
    "address": "Av. Nelly Martins, 76 (Via Park)",
    "logo_url": "",
    "tel": "(67) 3201-8724",
    "face": "https://www.facebook.com/JogaBurger/",
    "web": "http://www.jogaburger.com.br",
    "cnpj": "24.315.678/0001-21",
    "lat": -20.4411261,
    "long": -54.5813317
  },
  {
    "name": "Arena Lan House Informatica",
    "category": "Lan House Gamer",
    "address": "R. Eg�dio Michaelsen, 59 - Centro",
    "logo_url": "",
    "tel": "(51) 99236-7243",
    "face": "https://www.facebook.com/pg/ArenaLH/about/",
    "web": "https://arenalanhouseinformatica.webnode.com/",
    "cnpj": "16.876.525/0001-25",
    "lat": -29.327828,
    "long": -49.7169106
  },
  {
    "name": "Black Wolf Lan House",
    "category": "Lan House Gamer",
    "address": "St. P EQNP 26/30 Loja 04 - Ceil�ndia Sul",
    "logo_url": "",
    "tel": "(61) 3965-7040",
    "face": "https://www.facebook.com/pg/bwlanhouse",
    "web": "N�o possui",
    "cnpj": "11.230.550/0001-13",
    "lat": -15.8449666,
    "long": -48.1204574
  },
  {
    "name": "Blackout - Arena Gamer",
    "category": "Lan House Gamer",
    "address": "R. Santa Nazar�, 102 - Po�o",
    "logo_url": "",
    "tel": "(82) 99682-7160",
    "face": "https://www.facebook.com/pg/blackoutarena",
    "web": "N�o possui",
    "cnpj": "N�o Consta",
    "lat": -9.661086,
    "long": -35.719242
  },
  {
    "name": "Taverna Geek",
    "category": "Luderia",
    "address": "R. Esp�rito Santo, 87 - Campo Grande, Santos - SP, 11075-390, Brazil",
    "logo_url": "",
    "tel": "(13) 99749-3515",
    "face": "https://www.facebook.com/lojatavernageek",
    "web": "tavernageek.com.br",
    "cnpj": "24.387.058/0001-06",
    "lat": -23.9560651,
    "long": -46.3344836
  },
  {
    "name": "Brother's Cyber Caf�",
    "category": "Lan House Gamer",
    "address": "Cidade Nova, Manaus - AM, 69097-287, Brazil",
    "logo_url": "",
    "tel": "(92) 99302-3051",
    "face": "https://www.facebook.com/brotherscyberlan/",
    "web": "N�o possui",
    "cnpj": "N�o Consta",
    "lat": -3.0062728,
    "long": -59.9755497
  },
  {
    "name": "Castelo Lan House",
    "category": "Lan House Gamer",
    "address": "Av. Get�lio Vargas, 219 - Centro, Manaus - AM, 69020-010, Brazil",
    "logo_url": "",
    "tel": "(92) 99315-6063",
    "face": "https://www.facebook.com/Castelo-Lan-House-111346808951119/",
    "web": "https://castelo-lan-house.negocio.site/",
    "cnpj": "06.037.265/0001-40",
    "lat": -3.1333452,
    "long": -60.0208851
  },
  {
    "name": "Acesso Homelan",
    "category": "Lan House Gamer",
    "address": "Pra�a Am�lia Braga, 19 - Centro, Itajub� - MG, 37500-030, Brazil",
    "logo_url": "",
    "tel": "(35) 3621-8383",
    "face": "https://www.facebook.com/acessohl",
    "web": "N�o possui",
    "cnpj": "24.418.291/0001-09",
    "lat": -22.4227263,
    "long": -45.4522203
  },
  {
    "name": "Bomba Burguer",
    "category": "Estabelecimento Geek",
    "address": "R. Sete de Setembro, 633 - Centro",
    "logo_url": "",
    "tel": "(51) 3206-4040",
    "face": "https://www.facebook.com/bombaburguer/",
    "web": "https://bombaburguer.business.site/",
    "cnpj": "24.625.002/0001-34",
    "lat": -25.4359001,
    "long": -49.1934489
  },
  {
    "name": "Click Lan",
    "category": "Lan House Gamer",
    "address": "R. Profa. Lea Alencar, 428 a - Alvorada 2, Manaus - AM, 69042-050, Brazil",
    "logo_url": "",
    "tel": "(92) 98835-2364",
    "face": "https://www.facebook.com/clickgamehouse/",
    "web": "https://click-lan-manaus.negocio.site/?utm_source=gmb&utm_medium=referral",
    "cnpj": "N�o Consta",
    "lat": -3.0769957,
    "long": -60.0532872
  },
  {
    "name": "Coxa Games",
    "category": "Lan House Gamer",
    "address": "Rua Janio Alves, 10",
    "logo_url": "",
    "tel": "N�o consta",
    "face": "https://www.facebook.com/coxagames2017/",
    "web": "N�o possui",
    "cnpj": "19.992.291/0001-70",
    "lat": -3.8079764,
    "long": -38.5427421
  },
  {
    "name": "Cyber 7 Lan House E Copos Personalizados",
    "category": "Lan House Gamer",
    "address": "R. das Samambaias, 175 - Jardim Verao",
    "logo_url": "",
    "tel": "(44) 3264-4115",
    "face": "https://www.facebook.com/Cyber7lanhouse/",
    "web": "N�o possui",
    "cnpj": "23.672.542/0001-06",
    "lat": -23.452164,
    "long": -51.8666584
  },
  {
    "name": "Cyber Play Game House",
    "category": "Lan House Gamer",
    "address": "R. 7 de Setembro, 1213 - Centro",
    "logo_url": "",
    "tel": "(47) 99149-1365",
    "face": "https://www.facebook.com/cyberplaycentro",
    "web": "https://www.cyberplay.com.br/",
    "cnpj": "27.923.201/0001-17",
    "lat": -26.9205582,
    "long": -49.0696077
  },
  {
    "name": "Cyber Space",
    "category": "Lan House Gamer",
    "address": "R. Vinte, 457 - Centro, Barretos - SP, 14780-070, Brazil",
    "logo_url": "",
    "tel": "(17) 3325-3937",
    "face": "https://www.facebook.com/cyberspacebarretos/",
    "web": "N�o possui",
    "cnpj": "05.104.297/0001-59",
    "lat": -20.5562088,
    "long": -48.5705395
  },
  {
    "name": "Naves Burger",
    "category": "Estabelecimento Geek",
    "address": "Av. Professor M�rio Werneck, 3379",
    "logo_url": "",
    "tel": "N�o consta",
    "face": "https://www.facebook.com/NavesBurger/",
    "web": "https://www.navesburger.com.br/",
    "cnpj": "24.743.201/0001-47",
    "lat": -19.9769879,
    "long": -43.9762878
  },
  {
    "name": "Ludoteca Bgc - Boardgame Em Casa",
    "category": "Luderia",
    "address": "Asa Sul Com�rcio Local Sul 315 Loja 13 - Asa Sul",
    "logo_url": "",
    "tel": "(61) 3245-1785",
    "face": "https://www.facebook.com/ludotecabgc/",
    "web": "https://www.ludoteca.com.br/",
    "cnpj": "24.919.759/0001-30",
    "lat": -15.827474,
    "long": -47.9228049
  },
  {
    "name": "Epic Game",
    "category": "Loja de Cards",
    "address": "R. da Gl�ria, 117 - Liberdade, S�o Paulo - SP, 01510-001, Brazil",
    "logo_url": "",
    "tel": "(11) 3101-5259",
    "face": "https://www.facebook.com/epicgameoficial/",
    "web": "http://www.epicgame.com.br/",
    "cnpj": "24.925.304/0001-28",
    "lat": -23.5542093,
    "long": -46.6340247
  },
  {
    "name": "Dot Com Lan House",
    "category": "Lan House Gamer",
    "address": "Pra�a Santo Eduardo, 75 - Vila Maria Baixa",
    "logo_url": "",
    "tel": "(11) 2631-7093",
    "face": "https://www.facebook.com/pontocomlanhouse10/",
    "web": "http://www.pontocomlanhouse.com.br/",
    "cnpj": "09.394.296/0001-47",
    "lat": -23.5150444,
    "long": -46.5878266
  },
  {
    "name": "Dragon Lan House",
    "category": "Lan House Gamer",
    "address": "R. Silvio Candello, 601 - Jardim Morada do Sol, Indaiatuba - SP, 13348-342, Brazil",
    "logo_url": "",
    "tel": "(19) 3935-0549",
    "face": "https://www.facebook.com/DragonVideo",
    "web": "http://business.google.com/website/webdragonlan",
    "cnpj": "07.614.120/0001-28",
    "lat": -23.1276068,
    "long": -47.2425056
  },
  {
    "name": "Eletrongames",
    "category": "Lan House Gamer",
    "address": "R. Augusta, 612 - Consola��o, S�o Paulo - SP, 01305-100",
    "logo_url": "",
    "tel": "(11) 3255-3965",
    "face": "N�o possui",
    "web": "N�o possui",
    "cnpj": "N�o Consta",
    "lat": -23.5517161,
    "long": -46.6518535
  },
  {
    "name": "Encounter Board Games",
    "category": "Luderia",
    "address": "Alameda dos Nhambiquaras, 2013 - Moema",
    "logo_url": "",
    "tel": "(11) 99845-4090",
    "face": "https://www.facebook.com/encounter.bg/",
    "web": "https://www.encounter.com.br/",
    "cnpj": "25.021.285/0001-78",
    "lat": -23.6146893,
    "long": -46.666337
  },
  {
    "name": "Mulligan Burger At Games",
    "category": "Estabelecimento Geek",
    "address": "Rua Prefeito Jos� Leite, 114",
    "logo_url": "",
    "tel": "(83) 3021-5869",
    "face": "https://www.facebook.com/mulliganburgeratgames/",
    "web": "https://www.mulligangames.com.br/",
    "cnpj": "25.299.491/0001-44",
    "lat": -7.1185586,
    "long": -34.8389798
  },
  {
    "name": "Fast Shark Inform�tica - Lan House E Internet",
    "category": "Lan House Gamer",
    "address": "R. Maneco Viana, 2773-2827 - Santos Dumont",
    "logo_url": "",
    "tel": "(41) 3422-8220",
    "face": "https://www.facebook.com/fastsharkinfolan",
    "web": "N�o possui",
    "cnpj": "N�o Consta",
    "lat": -25.5283788,
    "long": -48.5252973
  },
  {
    "name": "Ff Games",
    "category": "Lan House Gamer",
    "address": "Quadra Dezenove n� 4, Conj. Panorama XXI - Mangueir�o",
    "logo_url": "",
    "tel": "(91) 3351-7334",
    "face": "https://www.facebook.com/pg/ffgameslan",
    "web": "N�o possui",
    "cnpj": "33.785.447/0001-72",
    "lat": -1.3785279,
    "long": -48.4393595
  },
  {
    "name": "Fox Assist�ncia T�cnica & Lan House",
    "category": "Lan House Gamer",
    "address": "R. Monsenhor Gercino, 3450 - Itaum",
    "logo_url": "",
    "tel": "(47) 3438-5375",
    "face": "https://www.facebook.com/foxjoinville/",
    "web": "N�o possui",
    "cnpj": "24.219.203/0001-31",
    "lat": -26.3410466,
    "long": -48.8205225
  },
  {
    "name": "Fox Games S�o Roque",
    "category": "Lan House Gamer",
    "address": "R. Dr. Stevaux, 279, S�o Roque - SP, 18130-500, Brazil",
    "logo_url": "",
    "tel": "(11) 94291-5506",
    "face": "https://www.facebook.com/foxgamesR/",
    "web": "http://foxgames-saoroque.negocio.site/",
    "cnpj": "N�o Consta",
    "lat": -23.5289776,
    "long": -47.1331372
  },
  {
    "name": "Funbox Boardgame Caf�",
    "category": "Luderia",
    "address": "Rua Comendador Macedo 318",
    "logo_url": "",
    "tel": "(41) 3121-0780",
    "face": "https://www.facebook.com/pg/funboxcuritiba",
    "web": "N�o possui",
    "cnpj": "25.362.227/0001-08",
    "lat": -25.4304388,
    "long": -49.261263
  },
  {
    "name": "Game Zone Lan Games & Intenet",
    "category": "Lan House Gamer",
    "address": "Av. Autom�vel Clube, 83 - Centro, S�o Jo�o de Meriti - RJ, 25515-125, Brazil",
    "logo_url": "",
    "tel": "(21) 2655-5004",
    "face": "https://www.facebook.com/gzlanhouse",
    "web": "N�o possui",
    "cnpj": "05.398.422/0001-80",
    "lat": -22.8036127,
    "long": -43.3673142
  },
  {
    "name": "Gex Games Center",
    "category": "Lan House Gamer",
    "address": "Pra�a da Bandeira, 966 - Centro, Tup� - SP, 17600-970, Brazil",
    "logo_url": "",
    "tel": "(14) 3491-1381",
    "face": "https://www.facebook.com/Gex-Games-Center-525995460929258/",
    "web": "http://business.google.com/website/gex-games-center",
    "cnpj": "06.130.308/0001-38",
    "lat": -21.9344635,
    "long": -50.5144888
  },
  {
    "name": "Cooldown E-sports N' Burgers",
    "category": "Estabelecimento Gamer",
    "address": "Av. Silva Jardim, 1145 - Rebou�as",
    "logo_url": "",
    "tel": "(41) 3209-2079",
    "face": "https://www.facebook.com/cooldownesports/",
    "web": "www.cooldown.com.br",
    "cnpj": "25.426.352/0001-34",
    "lat": -25.4416368,
    "long": -49.2716202
  },
  {
    "name": "Vr Gamer - Arcade Virtual Reality",
    "category": "Estabelecimento Gamer",
    "address": "Rua Dona In�cia Uchoa, 373 - Vila Mariana, S�o Paulo - SP, 04110-021, Brazil",
    "logo_url": "",
    "tel": "(11) 5081-7623",
    "face": "https://www.facebook.com/vrgamerbrasil/",
    "web": "http://www.vrgamer.com.br",
    "cnpj": "26.080.088/0001-92",
    "lat": -23.5836179,
    "long": -46.6325149
  },
  {
    "name": "I3 Lan House E-sports Games",
    "category": "Lan House Gamer",
    "address": "Avenida independ�ncia N� 5 com Zacarias de assun��o",
    "logo_url": "",
    "tel": "(91) 3255-4749",
    "face": "https://www.facebook.com/pg/I3LanHouse",
    "web": "https://lan-house-i3-e-sport-games.business.site/",
    "cnpj": "N�o Consta",
    "lat": -1.3594666,
    "long": -48.3671926
  },
  {
    "name": "Power Up Games",
    "category": "Loja de Cards",
    "address": "Av. Vital Brasil, 318 - Butant�, S�o Paulo - SP, 05503-000",
    "logo_url": "",
    "tel": "(11) 3624-5073",
    "face": "https://www.facebook.com/pugamesBR/",
    "web": "https://www.pugames.com.br/",
    "cnpj": "26.128.156/0001-46",
    "lat": -23.5715395,
    "long": -46.7073078
  },
  {
    "name": "Info Play Lan House",
    "category": "Lan House Gamer",
    "address": "R. Jo�o P�res, 72 - Centro, Atibaia - SP, 12940-500, Brazil",
    "logo_url": "",
    "tel": "(11) 4411-0938",
    "face": "http://www.facebook.com/infoplay",
    "web": "http://www.infoplaygames.com.br/",
    "cnpj": "N�o Consta",
    "lat": -23.1144698,
    "long": -46.5569487
  },
  {
    "name": "Infoclin Lanhouse",
    "category": "Lan House Gamer",
    "address": "Rua Agenor Alves dos Santos, N581 Ao lado da Igreja Maranata, em frente a Torre de Celular - Nossa Sra. da Conceicao, Guarapari - ES, 29213-090, Brazil",
    "logo_url": "",
    "tel": "(27) 99995-2990",
    "face": "https://www.facebook.com/InfoClin/",
    "web": "N�o possui",
    "cnpj": "15.540.603/0001-53",
    "lat": -20.6460791,
    "long": -40.5128274
  },
  {
    "name": "Infoshop Lan House",
    "category": "Lan House Gamer",
    "address": "R. Volunt�rios da P�tria, 1105 - Centro",
    "logo_url": "",
    "tel": "(53) 3025-5555",
    "face": "https://www.facebook.com/INFOSHOPLANHOUSE/",
    "web": "N�o possui",
    "cnpj": "N�o Consta",
    "lat": -31.7658735,
    "long": -52.3420262
  },
  {
    "name": "Kebra Galho Online",
    "category": "Lan House Gamer",
    "address": "Av. Get�lio Vargas, 90 - Loja 2 - Praia Grande, Arraial do Cabo - RJ, 28930-000, Brazil",
    "logo_url": "",
    "tel": "(22) 99856-2289",
    "face": "https://www.facebook.com/KebraGalhoOnline/",
    "web": "https://paulonogueira960.wixsite.com/kebragalhoonline/",
    "cnpj": "14.762.002/0001-22",
    "lat": -22.9774169,
    "long": -42.0283872
  },
  {
    "name": "Kimera Lan House",
    "category": "Lan House Gamer",
    "address": "R Francisco Felix, 96, Jardim dos Pioneiros",
    "logo_url": "",
    "tel": "(66) 3022-1612",
    "face": "https://www.facebook.com/pg/Kimeralan",
    "web": "http://kimeralanhouse.negocio.site",
    "cnpj": "09.482.562/0001-93",
    "lat": -16.4641653,
    "long": -54.6226078
  },
  {
    "name": "Yoougeek",
    "category": "Estabelecimento Geek",
    "address": "Rua Olavo Bilac, 142 Cambu�",
    "logo_url": "",
    "tel": "(19) 3251-5667",
    "face": "https://www.facebook.com/pg/yoougeek",
    "web": "http://yoougeek.com.br/",
    "cnpj": "26.317.712/0001-22",
    "lat": -22.8947187,
    "long": -47.056636
  },
  {
    "name": "L.g.x Lan House",
    "category": "Lan House Gamer",
    "address": "Av. Cupec�, 6062 - 16 - Jardim Prudencia, S�o Paulo - SP, 04366-001",
    "logo_url": "",
    "tel": "(11) 5623-4874",
    "face": "https://www.facebook.com/LgxLanHouse/",
    "web": "N�o possui",
    "cnpj": "09.553.807/0001-26",
    "lat": -23.6837036,
    "long": -46.6345133
  },
  {
    "name": "Lan House Blackout",
    "category": "Lan House Gamer",
    "address": "Rua Monte Agulhas Negras 265, Sala 4 - Monte alegre",
    "logo_url": "",
    "tel": "(47) 9991-2755",
    "face": "https://www.facebook.com/blackoutlan/",
    "web": "N�o possui",
    "cnpj": "19.079.272/0001-57",
    "lat": -26.9984694,
    "long": -48.6575512
  },
  {
    "name": "Lan House Blood Gamers",
    "category": "Lan House Gamer",
    "address": "Rua Ab�lio Camilo Valen�a - N 576",
    "logo_url": "",
    "tel": "(87) 98128-5841",
    "face": "https://www.facebook.com/pg/lanhousebloodgamers19",
    "web": "https://lan-house-blood-gamers.negocio.site/",
    "cnpj": "32.738.578/0001-36",
    "lat": -8.8763538,
    "long": -36.4697074
  },
  {
    "name": "Lan House Cyber Brazil",
    "category": "Lan House Gamer",
    "address": "R. Cel. Te�filo Leme, 967 - Centro, Bragan�a Paulista - SP, 12900-005, Brazil",
    "logo_url": "",
    "tel": "(11) 4032-6582",
    "face": "https://www.facebook.com/CyberBrazil",
    "web": "N�o possui",
    "cnpj": "08.111.756/0001-10",
    "lat": -22.9553032,
    "long": -46.5403958
  },
  {
    "name": "Lan House Cyber Twister",
    "category": "Lan House Gamer",
    "address": "R. Cel. Henrique da Fonseca, 247 - Centro, S�o Jo�o de Meriti - RJ, 25520-620, Brazil",
    "logo_url": "",
    "tel": "(21) 2655-1556",
    "face": "https://www.facebook.com/cybertwistersjm/",
    "web": "N�o possui",
    "cnpj": "20.064.179/0001-58",
    "lat": -22.8015619,
    "long": -43.3740752
  },
  {
    "name": "Lan House Cyber Virtual",
    "category": "Lan House Gamer",
    "address": "Hipermercado Muffato - Av. Duque de Caxias, 1200 - sala 30 - Jardim Igapo",
    "logo_url": "",
    "tel": "(43) 3327-6606",
    "face": "https://www.facebook.com/cybervirtuall/",
    "web": "N�o possui",
    "cnpj": "N�o Consta",
    "lat": -23.3305239,
    "long": -51.1504444
  },
  {
    "name": "Lan House Da Linda",
    "category": "Lan House Gamer",
    "address": "Rua Manuel de Oliveira Azenha, 704 - Jardim Sao Manoel, Nova Odessa - SP, 13460-000, Brazil",
    "logo_url": "",
    "tel": "(19) 3476-3443",
    "face": "https://www.facebook.com/lanhousedalinda",
    "web": "N�o possui",
    "cnpj": "33.918.308/0001-70",
    "lat": -22.8023273,
    "long": -47.3063601
  },
  {
    "name": "Lan House Do Arthur",
    "category": "Lan House Gamer",
    "address": "R. Ant�nio Peixoto, 40",
    "logo_url": "",
    "tel": "(51) 99941-3556",
    "face": "https://www.facebook.com/lanhousedoarthur/",
    "web": "N�o possui",
    "cnpj": "22.518.931/0001-19",
    "lat": -22.9530462,
    "long": -46.9718417
  },
  {
    "name": "Lan House Evolution",
    "category": "Lan House Gamer",
    "address": "Pra�a Silvio Romero, 255 Tatuap�",
    "logo_url": "",
    "tel": "(11) 96330-3665",
    "face": "https://www.facebook.com/pg/Evolutionlan255/",
    "web": "N�o possui",
    "cnpj": "07.812.854/0001-11",
    "lat": -23.5454278,
    "long": -46.5722696
  },
  {
    "name": "Lan House G@mes.com",
    "category": "Lan House Gamer",
    "address": "Av. S�rgio Cardoso, 64 - Novo Mexico, Vila Velha - ES, 29104-025, Brazil",
    "logo_url": "",
    "tel": "(27) 3208-2977",
    "face": "https://www.facebook.com/Games.com.lan",
    "web": "N�o possui",
    "cnpj": "N�o Consta",
    "lat": -20.3700109,
    "long": -40.316705
  },
  {
    "name": "Lan House Headstrong",
    "category": "Lan House Gamer",
    "address": "Av. Benedito Jacques Palazzoli, 280 - Jardim Bom Jesus, Pirapora do Bom Jesus - SP, 06550-000, Brazil",
    "logo_url": "",
    "tel": "(11) 97379-8165",
    "face": "N�o possui",
    "web": "https://lan-house-headstrong.negocio.site/",
    "cnpj": "N�o Consta",
    "lat": -23.3998848,
    "long": -47.0061958
  },
  {
    "name": "Lan House Intera��o",
    "category": "Lan House Gamer",
    "address": "Jardim Alc�ntara, S�o Gon�alo - RJ, 24710-240, Brazil",
    "logo_url": "",
    "tel": "(21) 96919-4633",
    "face": "https://www.facebook.com/lanInteracao/",
    "web": "http://business.google.com/website/lan-house-interacao",
    "cnpj": "N�o Consta",
    "lat": -22.8254808,
    "long": -43.0016007
  },
  {
    "name": "Legends Game Store",
    "category": "Loja de Cards",
    "address": "R. Dr. Gast�o C�mara Leal, 443 - Centro, Taubat� - SP, 12020-080",
    "logo_url": "",
    "tel": "(12) 99749-8346",
    "face": "https://www.facebook.com/LegendsGameStore/",
    "web": "https://www.legendsgs.com.br/",
    "cnpj": "26.476.139/0001-08",
    "lat": -23.0214791,
    "long": -45.5510315
  },
  {
    "name": "Neto Card's",
    "category": "Luderia",
    "address": "Rua Baldu�no Taques, 179",
    "logo_url": "",
    "tel": "(42) 9820-2578",
    "face": "https://www.facebook.com/NetooCards/",
    "web": "N�o possui",
    "cnpj": "26.566.420/0001-23",
    "lat": -25.0947832,
    "long": -50.1632483
  },
  {
    "name": "Gr�o-mestre Luderia",
    "category": "Estabelecimento Geek",
    "address": "Rua Alberto Leal, 100",
    "logo_url": "",
    "tel": "(83) 99616-6831",
    "face": "https://www.facebook.com/graomestreluderia/",
    "web": "http://www.luderiagraomestre.com.br/",
    "cnpj": "26.571.490/0001-70",
    "lat": -23.6329171,
    "long": -46.6466871
  },
  {
    "name": "X-gamer Lan House",
    "category": "Lan House Gamer",
    "address": "Av. Central, 548 - Parque Res. Laranjeiras, Serra - ES, 29165-130, Brazil",
    "logo_url": "",
    "tel": "(27) 3064-1158",
    "face": "https://www.facebook.com/xglanhouse/",
    "web": "http://xgamerlanhouse.com.br/",
    "cnpj": "26.686.171/0001-00",
    "lat": -20.1988959,
    "long": -40.2509065
  },
  {
    "name": "Lan House Virtual Cyber",
    "category": "Lan House Gamer",
    "address": "R. Angico, 3221 - Vila Eletronorte",
    "logo_url": "",
    "tel": "(69) 99338-4350",
    "face": "N�o possui",
    "web": "https://lan-house-virtual-cyber.negocio.site/",
    "cnpj": "30.818.093/0001-27",
    "lat": -8.7957871,
    "long": -63.8968048
  },
  {
    "name": "Lan House Virtual Life",
    "category": "Lan House Gamer",
    "address": "Av. Emanoel Pinto, 273 - sala 01 - Centro",
    "logo_url": "",
    "tel": "(47) 3347-1247",
    "face": "https://www.facebook.com/lanhousevirtuallife",
    "web": "N�o possui",
    "cnpj": "13.853.156/0001-67",
    "lat": -26.7683735,
    "long": -48.6704287
  },
  {
    "name": "Lan Show Net",
    "category": "Lan House Gamer",
    "address": "Pra�a Haroldo Daltro, 20 - Vila Carrao, S�o Paulo - SP, 03444-090, Brazil",
    "logo_url": "",
    "tel": "(11) 2941-5972",
    "face": "http://www.facebook.com.br/lanshownetcomputer",
    "web": "http://lanshownet.com/",
    "cnpj": "09.517.393/0001-80",
    "lat": -23.5492146,
    "long": -46.5335502
  },
  {
    "name": "Lan-house Extreme",
    "category": "Lan House Gamer",
    "address": "Av. Geraldo In�cio, 668 - Melo Viana, Cel. Fabriciano - MG, 35170-150, Brazil",
    "logo_url": "",
    "tel": "(31) 98541-3125",
    "face": "https://www.facebook.com/lnextreme",
    "web": "N�o possui",
    "cnpj": "N�o Consta",
    "lat": -19.5006728,
    "long": -42.6304147
  },
  {
    "name": "Lecart 3d Inform�tica E Lan House",
    "category": "Lan House Gamer",
    "address": "R. Cinco de Outubro, 57 - Moquet�, Nova Igua�u - RJ, 26215-050, Brazil",
    "logo_url": "",
    "tel": "(21) 3773-2930",
    "face": "https://www.facebook.com/lecart3dinfoelanhouse/",
    "web": "http://business.google.com/website/lan-house-lecart-3d",
    "cnpj": "19.196.788/0001-81",
    "lat": -22.7493032,
    "long": -43.4482786
  },
  {
    "name": "Legends Lan House",
    "category": "Lan House Gamer",
    "address": "Av. Nereu Ramos, 308\nSombrio - Centro",
    "logo_url": "",
    "tel": "(48) 99660-2111",
    "face": "https://www.facebook.com/pg/legendslanhouse/",
    "web": "N�o possui",
    "cnpj": "21.054.479/0001-19",
    "lat": -29.0996559,
    "long": -49.6285374
  },
  {
    "name": "Arkana, Cards E Games",
    "category": "Luderia",
    "address": "Sala 203 386, R. Bom Jesus - Centro, Pouso Alegre - MG, 37550-002",
    "logo_url": "",
    "tel": "(35) 99984-2219",
    "face": "https://www.facebook.com/Arkanacg/",
    "web": "N�o possui",
    "cnpj": "26.768.615/0001-56",
    "lat": -22.229892,
    "long": -45.936306
  },
  {
    "name": "Coliseu Dos Jogos",
    "category": "Luderia",
    "address": "Rua Cear�, 1108, loja 108",
    "logo_url": "",
    "tel": "(71) 3043-8296",
    "face": "https://www.facebook.com/coliseudosjogos",
    "web": "https://coliseudosjogos.com.br/",
    "cnpj": "26.848.967/0001-11",
    "lat": -13.0023992,
    "long": -38.4574374
  },
  {
    "name": "Doidos Por Dados",
    "category": "Luderia",
    "address": "Rua Doutor Neto de Ara�jo, 397, Vila Mariana",
    "logo_url": "",
    "tel": "(11) 94261-9135",
    "face": "https://www.facebook.com/doidospordados/",
    "web": "N�o possui",
    "cnpj": "26.966.380/0001-07",
    "lat": -23.5878631,
    "long": -46.6311831
  },
  {
    "name": "Morpheus Lan House Sert�ozinho",
    "category": "Lan House Gamer",
    "address": "R. Ant�nio Bianconi, 1472 - Centro, Sert�ozinho - SP, 14160-810, Brazil",
    "logo_url": "",
    "tel": "(16) 3491-2771",
    "face": "https://www.facebook.com/morpheuslan.sertaozinho",
    "web": "http://bit.ly/morpheuslanhouse",
    "cnpj": "N�o Consta",
    "lat": -21.1425624,
    "long": -47.9826915
  },
  {
    "name": "Naboa Lanhouse",
    "category": "Lan House Gamer",
    "address": "Loja 03 - Condom�nio Edif�cio San Diego - Av. Rio Doce, 380 - Areao",
    "logo_url": "",
    "tel": "(31) 3834-4452",
    "face": "https://www.facebook.com/naboalanhouse",
    "web": "N�o possui",
    "cnpj": "08.436.185/0001-93",
    "lat": -5.7416908,
    "long": -35.2550989
  },
  {
    "name": "Net4fun",
    "category": "Lan House Gamer",
    "address": "Rua Joaquim Nabuco, n. 100, sala 1",
    "logo_url": "",
    "tel": "(48) 3442-0206",
    "face": "https://www.facebook.com/Net4fun/",
    "web": "http://net4fun.com.br/",
    "cnpj": "04.498.460/0001-42",
    "lat": -25.5073917,
    "long": -49.2052052
  },
  {
    "name": "Netmania Lan House",
    "category": "Lan House Gamer",
    "address": "Box: 02, R. J�lio Soares da Silva - Mangabeira VIII",
    "logo_url": "",
    "tel": "(83) 98150-2754",
    "face": "https://www.instagram.com/netmaniagamer",
    "web": "N�o possui",
    "cnpj": "N�o Consta",
    "lat": -7.1784463,
    "long": -34.8303403
  },
  {
    "name": "Nexus Lan House",
    "category": "Lan House Gamer",
    "address": "001 - Estr. Ten. Marques, 5671 - Jardim do Luar (Fazendinha), Santana de Parna�ba - SP, 06530-017, Brazil",
    "logo_url": "",
    "tel": "(11) 4705-1114",
    "face": "https://www.facebook.com/profile.php?id=100010156238121",
    "web": "N�o possui",
    "cnpj": "23.745.868/0001-16",
    "lat": -23.4065902,
    "long": -46.8761034
  },
  {
    "name": "Office Games",
    "category": "Lan House Gamer",
    "address": "R. Louren�o Moreira da Silva, 44 - Ponta Verde",
    "logo_url": "",
    "tel": "(82) 3231-5297",
    "face": "https://www.facebook.com/Lanhouseofficegames/",
    "web": "N�o possui",
    "cnpj": "28.083.250/0001-51",
    "lat": -9.6546439,
    "long": -35.7015861
  },
  {
    "name": "Oitobits Inform�tica & Lan House",
    "category": "Lan House Gamer",
    "address": "Rua M�rio C�sar Costa, 2436 - Real Parque",
    "logo_url": "",
    "tel": "(48) 3094-0462",
    "face": "https://www.facebook.com/oitobitsinfo/",
    "web": "N�o possui",
    "cnpj": "N�o consta",
    "lat": -27.5650182,
    "long": -48.6391815
  },
  {
    "name": "Vila Celta",
    "category": "Loja de Cards",
    "address": "R. Dr. Faivre, 115 - Centro",
    "logo_url": "",
    "tel": "(41) 99841-8643",
    "face": "https://www.facebook.com/vilacelta/",
    "web": "https://www.vilacelta.com.br",
    "cnpj": "26089460/0001-21",
    "lat": -25.4247222,
    "long": -49.2633025
  },
  {
    "name": "Komic Lan House",
    "category": "Lan House Gamer",
    "address": "R. Jo�o de Campos Bueno, 445 - Jardim Morada do Sol, Indaiatuba - SP, 13348-460, Brazil",
    "logo_url": "",
    "tel": "(19) 3935-5422",
    "face": "https://www.facebook.com/komiclanhouse/",
    "web": "N�o possui",
    "cnpj": "27.044.979/0001-56",
    "lat": -23.1180469,
    "long": -47.2393821
  },
  {
    "name": "Planet Games",
    "category": "Lan House Gamer",
    "address": "R. Cel. Lucas Magalh�es, 597, Monte Santo de Minas - MG, 37958-000, Brazil",
    "logo_url": "",
    "tel": "(35) 3591-2235",
    "face": "https://www.facebook.com/duplanetgames/",
    "web": "N�o possui",
    "cnpj": "24.516.675/0001-56",
    "lat": -21.1931507,
    "long": -46.9745684
  },
  {
    "name": "Deli Da Persy",
    "category": "Luderia",
    "address": "Rua Padre C�cero,905",
    "logo_url": "",
    "tel": "(88) 99772-3396",
    "face": "https://www.facebook.com/DeliDaPersy/",
    "web": "http://www.delidapersy.com/",
    "cnpj": "27.163.905/0001-39",
    "lat": -7.2062636,
    "long": -39.3202736
  },
  {
    "name": "Play Store Ter� - Lan House & Inform�tica",
    "category": "Lan House Gamer",
    "address": "R. Dr. Oliveira, 905 - Barra do Imbu�, Teres�polis - RJ, 25965-176, Brazil",
    "logo_url": "",
    "tel": "(21) 2741-1489",
    "face": "https://www.facebook.com/PlayStoreTere",
    "web": "N�o possui",
    "cnpj": "N�o Consta",
    "lat": -22.4033901,
    "long": -42.9769769
  },
  {
    "name": "Esportagem Sports Bar",
    "category": "Estabelecimento Geek",
    "address": "Av. Senador Salgado Filho, 3002",
    "logo_url": "",
    "tel": "(84) 99970-1617",
    "face": "https://www.facebook.com/pg/EsportagemSportsBar",
    "web": "https://esportagemsportsbar.negocio.site/",
    "cnpj": "27.383.862/0001-05",
    "lat": -5.8340825,
    "long": -35.2128291
  },
  {
    "name": "Terra M�dia Luderia E Caf�",
    "category": "Luderia",
    "address": "R. Ant�nio Pereira de Abreu - Centro",
    "logo_url": "",
    "tel": "(81) 98923-2400",
    "face": "https://www.facebook.com/terramedialuderia/",
    "web": "N�o possui",
    "cnpj": "27.575.783/0001-98",
    "lat": -7.9539729,
    "long": -36.2047278
  },
  {
    "name": "Loja Radioativa Geek Nerd",
    "category": "Estabelecimento Geek",
    "address": "Av. Brasil Oeste, 1025 - Centro",
    "logo_url": "",
    "tel": "(54) 3601-2351",
    "face": "https://www.facebook.com/lojaradioativa",
    "web": "https://www.lojaradioativa.com.br/",
    "cnpj": "27.599.887/0001-32",
    "lat": -28.2635385,
    "long": -52.4139367
  },
  {
    "name": "Six Sports Bar",
    "category": "Estabelecimento Gamer",
    "address": "Rua: Jorge Tibiri��, 44 - Gonzaga",
    "logo_url": "",
    "tel": "(13) 3289-1010",
    "face": "https://www.facebook.com/sixsportsbar/",
    "web": "https://www.sixsportsbar.com.br",
    "cnpj": "27.655.875/0001-88",
    "lat": -23.9691569,
    "long": -46.3304323
  },
  {
    "name": "Gamerz Burguer",
    "category": "Estabelecimento Geek",
    "address": "Rua Padre Bernadino Pessoa , 317 , Boa viagem",
    "logo_url": "",
    "tel": "(81) 3132-6334",
    "face": "https://www.facebook.com/gamerz.burguer/",
    "web": "N�o possui",
    "cnpj": "27.771.400/0001-57",
    "lat": -8.11368,
    "long": -34.8956704
  },
  {
    "name": "Geek Burger",
    "category": "Estabelecimento Geek",
    "address": "Rua Jo�o Balbi, 1291",
    "logo_url": "",
    "tel": "(91) 99257-6132",
    "face": "https://www.facebook.com/geekburgeroficial/",
    "web": "N�o possui",
    "cnpj": "27.838.219/0001-10",
    "lat": -1.4468443,
    "long": -48.4766994
  },
  {
    "name": "Quantum Lan House",
    "category": "Lan House Gamer",
    "address": "Av. Nereu Ramos, 230-D - Centro - Sala 3 Chapec�",
    "logo_url": "",
    "tel": "(49) 3025-1885",
    "face": "https://www.facebook.com/quantumlan/",
    "web": "N�o possui",
    "cnpj": "N�o Consta",
    "lat": -27.1065225,
    "long": -52.6118421
  },
  {
    "name": "Replay Lan House",
    "category": "Lan House Gamer",
    "address": "R. C�ndido de Le�o, 45 - Centro",
    "logo_url": "",
    "tel": "(41) 3092-0022",
    "face": "https://www.facebook.com/Replay-Lan-House-286972311423267/",
    "web": "http://www.replaylan.com.br/",
    "cnpj": "N�o Consta",
    "lat": -25.4310555,
    "long": -49.2725196
  },
  {
    "name": "Asgard",
    "category": "Loja de Cards",
    "address": "Rua 25 Sul, Lote 30, Conjunto A Loja 1 - Park Style - Aguas Claras",
    "logo_url": "",
    "tel": "(61) 3052-5345",
    "face": "https://www.facebook.com/pg/asgardbrasilia",
    "web": "http://www.asgardstore.com.br",
    "cnpj": "27.928.708/0001-63",
    "lat": -15.8440693,
    "long": -48.0295008
  },
  {
    "name": "Secret�ria Digital Lan House",
    "category": "Lan House Gamer",
    "address": "R. Jo�o Teodoro, 316 - Luz",
    "logo_url": "",
    "tel": "(11) 95800-3061",
    "face": "https://www.facebook.com/secretaria.digital.lanhouse316/",
    "web": "https://secretariadigitallanhouse.business.site/",
    "cnpj": "28.477.393/0001-48",
    "lat": -23.5334199,
    "long": -46.62949
  },
  {
    "name": "Moxland",
    "category": "Loja de Cards",
    "address": "Rua Pantojo, 1134 - �gua Rasa - S�o Paulo - SP",
    "logo_url": "",
    "tel": "(11) 2503-3667",
    "face": "https://www.facebook.com/moxland/",
    "web": "https://moxland.com/",
    "cnpj": "28.035.796/0001-37",
    "lat": -23.5619435,
    "long": -46.5664157
  },
  {
    "name": "Solu��es Em Ti Wj Inform�tica",
    "category": "Lan House Gamer",
    "address": "R. Vhail Pereira, 195 A - Coelho da Rocha, S�o Jo�o de Meriti - RJ, 25550-222, Brazil",
    "logo_url": "",
    "tel": "(21) 99393-2716",
    "face": "https://www.facebook.com/wjsolucoesemti/",
    "web": "https://solucoes-em-ti-wj-informatica.business.site/",
    "cnpj": "N�o Consta",
    "lat": -22.777674,
    "long": -43.3866332
  },
  {
    "name": "Source Lan House",
    "category": "Lan House Gamer",
    "address": "Avenida Gen. Rodrigo Ot�vio, 2 - S�o L�zaro",
    "logo_url": "",
    "tel": "(92) 99382-8178",
    "face": "https://www.facebook.com/sourcelanhousewbs/",
    "web": "N�o possui",
    "cnpj": "09.465.461/0001-04",
    "lat": -3.1377324,
    "long": -59.9889758
  },
  {
    "name": "Walfenda Firewood Steak",
    "category": "Estabelecimento Geek",
    "address": "Rua Tito, 25",
    "logo_url": "",
    "tel": "N�o consta",
    "face": "https://www.facebook.com/Walfenda/",
    "web": "http://walfendamedieval.com.br",
    "cnpj": "28.123.567/0001-74",
    "lat": -23.528373,
    "long": -46.6919933
  },
  {
    "name": "Street Games Lan House",
    "category": "Lan House Gamer",
    "address": "4101, R. Gen. Os�rio - �gua Verde, Blumenau - SC, 89042-001",
    "logo_url": "",
    "tel": "(47) 3325-3139",
    "face": "https://www.facebook.com/Street-Games-Lan-House-776033635874131/",
    "web": "N�o possui",
    "cnpj": "23.639.518/0001-75",
    "lat": -26.9049263,
    "long": -49.1322549
  },
  {
    "name": "Omniverse",
    "category": "Loja de Cards",
    "address": "Rua Comendador Eduardo Saccab, 180 - Brooklin",
    "logo_url": "",
    "tel": "(11) 2127-8770",
    "face": "https://www.facebook.com/pg/omniverselivraria",
    "web": "N�o possui",
    "cnpj": "28.333.103/0001-92",
    "lat": -23.6130018,
    "long": -46.6770074
  },
  {
    "name": "Universo Game Net",
    "category": "Lan House Gamer",
    "address": "Rua Jos� Milan�s,87",
    "logo_url": "",
    "tel": "(84) 99984-2208",
    "face": "https://www.facebook.com/pg/UniversoGamenet",
    "web": "N�o possui",
    "cnpj": "20.743.135/0001-54",
    "lat": -6.2605344,
    "long": -36.51636
  },
  {
    "name": "Up Game House",
    "category": "Lan House Gamer",
    "address": "R. Francisco Derosso, 4861 - Sobreloja - Alto Boqueir�o",
    "logo_url": "",
    "tel": "(41) 3049-4644",
    "face": "https://www.facebook.com/gamehouseup",
    "web": "N�o possui",
    "cnpj": "14.515.658/0001-40",
    "lat": -25.5281889,
    "long": -49.2493984
  },
  {
    "name": "Virtuall Internet",
    "category": "Lan House Gamer",
    "address": "R. Paulo Barbosa, 310 - Centro, Petr�polis - RJ, 25625-081, Brazil",
    "logo_url": "",
    "tel": "(24) 98847-2026",
    "face": "facebook.com/Virtuallcyber/",
    "web": "N�o possui",
    "cnpj": "N�o Consta",
    "lat": -22.5090514,
    "long": -43.1699928
  },
  {
    "name": "Wcn Word Cyber-net - Lan House",
    "category": "Lan House Gamer",
    "address": "R. Leonilda, 352 - Vila Camilopolis, Santo Andr� - SP, 09230-260, Brazil",
    "logo_url": "",
    "tel": "(11) 4461-1662",
    "face": "https://www.facebook.com/wcnlanhouse",
    "web": "https://wcn-word-cyber-net-lan-house.negocio.site/",
    "cnpj": "N�o Consta",
    "lat": -23.6216467,
    "long": -46.5278061
  },
  {
    "name": "Omniverse Livraria E Hobby Store",
    "category": "Loja de Cards",
    "address": "Rua Teodureto Souto, 630 - Cambuci, S�o Paulo - SP, 01539-000",
    "logo_url": "",
    "tel": "(11) 2127-8770",
    "face": "https://www.facebook.com/omniverselivraria/",
    "web": "N�o possui",
    "cnpj": "28.333.103/0001-92",
    "lat": -23.5702763,
    "long": -46.6210051
  },
  {
    "name": "Max Arena",
    "category": "Lan House Gamer",
    "address": "R. da Mooca, 1601 - Mooca",
    "logo_url": "",
    "tel": "(11) 2291-8609",
    "face": "https://www.facebook.com/maxarenaoficial/",
    "web": "https://maxarena.com.br",
    "cnpj": "28.362.641/0001-05",
    "lat": -23.5543262,
    "long": -46.609387
  },
  {
    "name": "42 Bar E Board Games",
    "category": "Estabelecimento Geek",
    "address": "Arse 13 Avenida Lo 3",
    "logo_url": "",
    "tel": "(63) 3322-4224",
    "face": "https://www.facebook.com/42bareboardgames/",
    "web": "http://42bareboardgames.com.br",
    "cnpj": "28.561.665/0001-93",
    "lat": -10.1917784,
    "long": -48.3169035
  },
  {
    "name": "Tetris Game Burger",
    "category": "Estabelecimento Geek",
    "address": "Rua Jacira Reis, Manaus - AM, 69030-550",
    "logo_url": "",
    "tel": "(92) 3083-8108",
    "face": "https://www.facebook.com/tetrisgameburger/",
    "web": "N�o possui",
    "cnpj": "28.619.007/0001-05",
    "lat": -3.0969045,
    "long": -60.0486177
  },
  {
    "name": "Balboa's Hobby Games",
    "category": "Luderia",
    "address": "Rua Rep�blica do L�bano, 669 - Meireles",
    "logo_url": "",
    "tel": "(85) 3181-9922",
    "face": "https://www.facebook.com/GoBalboas/",
    "web": "N�o possui",
    "cnpj": "28.804.027/0001-56",
    "lat": -3.7320921,
    "long": -38.4939543
  },
  {
    "name": "X-ray Lan House",
    "category": "Lan House Gamer",
    "address": "Av. Central - Parque Res. Laranjeiras, Serra - ES, 29160-028, Brazil",
    "logo_url": "",
    "tel": "(27) 3328-7996",
    "face": "https://www.facebook.com/xraylanhouse",
    "web": "http://www.xraylanhouse.com.br/",
    "cnpj": "13.069.665/0001-01",
    "lat": -20.1993544,
    "long": -40.2520341
  },
  {
    "name": "X-ray Lan House",
    "category": "Lan House Gamer",
    "address": "Av. Beira Mar - Praia do Morro, Guarapari - ES, 29216-200, Brazil",
    "logo_url": "",
    "tel": "(27) 3030-1050",
    "face": "https://www.facebook.com/xraylanhouse",
    "web": "http://www.xraylanhouse.com.br/lojas/guarapari",
    "cnpj": "13.069.665/0001-01",
    "lat": -20.6542405,
    "long": -40.4874985
  },
  {
    "name": "Ilha Do Drag�o",
    "category": "Loja de Cards",
    "address": "R. Manoel Fortunato de Souza, 458",
    "logo_url": "",
    "tel": "(51) 99407-3753",
    "face": "https://www.facebook.com/ilhadodragao/",
    "web": "N�o possui",
    "cnpj": "28.846.920/0001-44",
    "lat": -29.3340278,
    "long": -49.732671
  },
  {
    "name": "Nexus Cards & Games",
    "category": "Loja de Cards",
    "address": "R. das Violetas, 693 - Capim Macio",
    "logo_url": "",
    "tel": "(84) 99106-7477",
    "face": "https://www.facebook.com/pg/nexuscgoficial",
    "web": "N�o possui",
    "cnpj": "28.861.889/0001-10",
    "lat": -5.8420665,
    "long": -35.2037109
  },
  {
    "name": "Zax Inform�tica & Lan House",
    "category": "Lan House Gamer",
    "address": "R. Isidrio Borges, 146 - Fazenda Caxias, Serop�dica - RJ, 23895-330, Brazil",
    "logo_url": "",
    "tel": "(21) 3787-0750",
    "face": "https://www.facebook.com/ZaxInformatica/",
    "web": "N�o possui",
    "cnpj": "N�o Consta",
    "lat": -22.7487752,
    "long": -43.7054698
  },
  {
    "name": "Zoinho Lan House",
    "category": "Lan House Gamer",
    "address": "Av. Frederico Ozanan, 435 - Vila Santa Maria, Ja� - SP, 17205-000, Brazil",
    "logo_url": "",
    "tel": "(14) 3626-3231",
    "face": "https://www.facebook.com/Zoinho-Lan-House-578881315831358/",
    "web": "N�o possui",
    "cnpj": "11.307.005/0001-88",
    "lat": -22.2922531,
    "long": -48.5688578
  },
  {
    "name": "Zona De Impacto Lan House",
    "category": "Lan House Gamer",
    "address": "Av. Eng. Ivanil Francischini, 8570 - Paineiras II, Ibitinga - SP, 14940-000, Brazil",
    "logo_url": "",
    "tel": "(16) 3341-3823",
    "face": "https://www.facebook.com/zona.deimpacto.35",
    "web": "N�o Possui",
    "cnpj": "N�o Consta",
    "lat": -21.7510409,
    "long": -48.8197257
  },
  {
    "name": "Ascens�o Jogos",
    "category": "Loja de Cards",
    "address": "R. Cel. Pedro Dias de Campos, 1108 - Ch�cara Calif�rnia, S�o Paulo - SP, 03508-010",
    "logo_url": "",
    "tel": "(11) 4171-0828",
    "face": "https://www.facebook.com/ascensaojogos/",
    "web": "https://www.ascensaocards.com.br/",
    "cnpj": "N�o Consta",
    "lat": -23.5326054,
    "long": -46.5315331
  },
  {
    "name": "Geekplay",
    "category": "Luderia",
    "address": "Av. T-3, n. 2673, Galeria P�tio do Lago (em frente ao Parque Vaca Brava Loja 23/24 - St. Bueno",
    "logo_url": "",
    "tel": "(62) 3639-6144",
    "face": "https://www.facebook.com/lojageekplay/",
    "web": "http://www.geekplay.com.br/",
    "cnpj": "28.918.344/0001-01",
    "lat": -16.7079758,
    "long": -49.2705594
  },
  {
    "name": "Table Games",
    "category": "Luderia",
    "address": "R. Cel. Jos� Ferreira Alves, 1151 - Centro, Araguari - MG, 38444-090",
    "logo_url": "",
    "tel": "(34) 3512-8899",
    "face": "https://www.facebook.com/tablegamesbr/",
    "web": "https://tablegames.com.br",
    "cnpj": "28.951.065/0001-31",
    "lat": -18.6458128,
    "long": -48.1957911
  },
  {
    "name": "Playtime Gamer Bar",
    "category": "Estabelecimento Gamer",
    "address": "R. Visc. de Inha�ma, 75 - Maur�cio de Nassau",
    "logo_url": "",
    "tel": "(81) 99580-3659",
    "face": "https://www.facebook.com/PlayTimeGamerBar/",
    "web": "N�o possui",
    "cnpj": "28.985.229/0001-41",
    "lat": -8.281707,
    "long": -35.9723677
  },
  {
    "name": "Cardfight Kingdom",
    "category": "Loja de Cards",
    "address": "Avenida Coelho Neto, N� 758, Bairro Boa Vista",
    "logo_url": "",
    "tel": "(84) 98775-2588",
    "face": "https://www.facebook.com/Cardfight/",
    "web": "N�o possui",
    "cnpj": "26.366.474/0001-45",
    "lat": -5.1981796,
    "long": -37.354825
  },
  {
    "name": "Cards Store",
    "category": "Loja de Cards",
    "address": "Av. Jos� Pr�spero Jacobucci, 253 - Parque das Universidades, Campinas - SP, 13086-090",
    "logo_url": "",
    "tel": "(19) 3296-1010",
    "face": "https://www.facebook.com/cardsstoregames",
    "web": "https://www.cardsstore.com.br/",
    "cnpj": "29.041.630/0001-96",
    "lat": -22.8360953,
    "long": -47.0553436
  },
  {
    "name": "Hamburgueria Burger Game SCS",
    "category": "Estabelecimento Geek",
    "address": "Av. Goi�s, 1594 - Centro",
    "logo_url": "",
    "tel": "(11)2897-8560",
    "face": "https://www.facebook.com/BurguerGameSCS/",
    "web": "N�o possui",
    "cnpj": "29.062.789/0001-97",
    "lat": -23.6166599,
    "long": -46.5607978
  },
  {
    "name": "Grifo Jogos",
    "category": "Luderia",
    "address": "Rua Expedicion�rio Cabo Harry Hadlich, 742, sala 03 - Centro",
    "logo_url": "",
    "tel": "(47) 99243-1328",
    "face": "https://www.facebook.com/grifojogos/",
    "web": "N�o possui",
    "cnpj": "29.306.584/0001-00",
    "lat": -26.4907769,
    "long": -49.0757864
  },
  {
    "name": "Player's Stop Tcg",
    "category": "Loja de Cards",
    "address": "Rua Silvio Barbosa, 157, Terr�o - Camargos, Guarulhos - SP, 07111-010",
    "logo_url": "",
    "tel": "(11) 4372-0229",
    "face": "https://www.facebook.com/playersstoptcg/",
    "web": "www.playersstoptcg.com",
    "cnpj": "29.433.890/0001-07",
    "lat": -23.4660213,
    "long": -46.5226157
  },
  {
    "name": "Esta��o Geek Board Games",
    "category": "Estabelecimento Geek",
    "address": "Rua Professor Pedro de Vasconcelos, 73",
    "logo_url": "",
    "tel": "(11) 2427-8869",
    "face": "https://www.facebook.com/estacaogeekbg",
    "web": "N�o possui",
    "cnpj": "29553498/000100",
    "lat": -23.1209138,
    "long": -46.5582547
  },
  {
    "name": "Dominaria Cards & Games",
    "category": "Loja de Cards",
    "address": "Rua Juvenal Galeno 512 - Benfica",
    "logo_url": "",
    "tel": "(85)3253-3940",
    "face": "https://www.facebook.com/dominariacg/",
    "web": "http://dominariacg.com.br/",
    "cnpj": "07.242.295/0001-51",
    "lat": -3.7384056,
    "long": -38.5396864
  },
  {
    "name": "Titan Store",
    "category": "Loja de Cards",
    "address": "R. Almeida Coelho, 240, Loja Esquina",
    "logo_url": "",
    "tel": "(48) 99127-9009",
    "face": "https://www.facebook.com/TitanStoree/",
    "web": "https://titanstore.com.br/",
    "cnpj": "30.070.444/0001-64",
    "lat": -27.6071504,
    "long": -48.5373447
  },
  {
    "name": "Dungeons&cards",
    "category": "Loja de Cards",
    "address": "R. Henrique Cantergiani, 375 - Mal. Floriano",
    "logo_url": "",
    "tel": "(54) 99949-4043",
    "face": "https://www.facebook.com/DungeonsAndCards/",
    "web": "N�o possui",
    "cnpj": "N�o Consta",
    "lat": -29.1674459,
    "long": -51.2057699
  },
  {
    "name": "Arena Cyb3r Caf�",
    "category": "Estabelecimento Gamer",
    "address": "Rua Saldanha Marinho, 318 - Centro",
    "logo_url": "",
    "tel": "(48) 3050-3334",
    "face": "https://www.facebook.com/arenacyb3rcafe/",
    "web": "https://www.arenacybercafe.com.br/",
    "cnpj": "30.342.887/0001-67",
    "lat": -27.596739,
    "long": -48.547909
  },
  {
    "name": "Fire Ice Card Games",
    "category": "Loja de Cards",
    "address": "Rua 1, 1910 - Centro, Rio Claro - SP, 13500-142",
    "logo_url": "",
    "tel": "(19) 9973-71003",
    "face": "https://www.facebook.com/fireandicecardgames/",
    "web": "N�o possui",
    "cnpj": "28.826.988/0001-61",
    "lat": -22.4020536,
    "long": -47.5606129
  },
  {
    "name": "Geek Pit",
    "category": "Loja de Cards",
    "address": "R. Padre Bernadino Pessoa 317",
    "logo_url": "",
    "tel": "(81) 99873-5956",
    "face": "https://www.facebook.com/G33kPit/",
    "web": "https://geekpit.com.br/?view=ecom/home",
    "cnpj": "32.508.242/0001-87",
    "lat": -8.11368,
    "long": -34.8956704
  },
  {
    "name": "Lotus Coffee House",
    "category": "Estabelecimento Geek",
    "address": "R. Alfredo Lopes, 938 - Jardim Macarengo,",
    "logo_url": "",
    "tel": "(16) 3374-4079",
    "face": "https://www.facebook.com/LotusCoffeeH/",
    "web": "N�o possui",
    "cnpj": "30.430.125/0001-12",
    "lat": -22.0078145,
    "long": -47.8896605
  },
  {
    "name": "Hive Jogos",
    "category": "Loja de Cards",
    "address": "Rua M�rio Pinto Sobrinho, 156",
    "logo_url": "",
    "tel": "(34) 99104-8238",
    "face": "https://www.facebook.com/pg/HiveJogos",
    "web": "https://www.hivejogos.com.br/",
    "cnpj": "31.590.039/0001-30",
    "lat": -18.9211505,
    "long": -48.2559729
  },
  {
    "name": "Antares Boardgame House",
    "category": "Luderia",
    "address": "CLSW 301 Bloco B, Loja 63 subsolo, St. Sudoeste",
    "logo_url": "",
    "tel": "(61) 98174-5688",
    "face": "https://www.facebook.com/AntaresBGH/",
    "web": "N�o informado",
    "cnpj": "30.476.689/0001-96",
    "lat": -15.7974335,
    "long": -47.9204217
  },
  {
    "name": "Invent�rio Itens E Games",
    "category": "Luderia",
    "address": "R. Veneriano dos Passos, 55 - Centro",
    "logo_url": "",
    "tel": "(49) 99949-0969",
    "face": "https://www.facebook.com/Inventarioitensegames/",
    "web": "N�o possui",
    "cnpj": "30.549.993/0001-16.",
    "lat": -27.0046357,
    "long": -51.1516079
  },
  {
    "name": "Deckmaster Games",
    "category": "Loja de Cards",
    "address": "Bernardino de Campos, 1208 - Centro, Ribeir�o Preto - SP, 14015-130",
    "logo_url": "",
    "tel": "(16) 9816-56197",
    "face": "https://www.facebook.com/deckmastergames/",
    "web": "www.deckmastergames.com.br",
    "cnpj": "30.656.614/0001-97",
    "lat": -21.1867707,
    "long": -47.8066828
  },
  {
    "name": "Spin Lan House",
    "category": "Lan House Gamer",
    "address": "R. Podal�rio Teixeira Machado, 380 - Bel�m Novo",
    "logo_url": "",
    "tel": "(51) 3259-1363",
    "face": "https://www.facebook.com/spinlanhouse/",
    "web": "http://www.spinlanhouse.com.br/",
    "cnpj": "30.668.658/0001-37",
    "lat": -30.210162,
    "long": -51.176533
  },
  {
    "name": "Chef Na Van",
    "category": "Estabelecimento Geek",
    "address": "R. Juv�ncio Costa, 39 - Trindade",
    "logo_url": "",
    "tel": "(48) 3025-2433",
    "face": "https://www.facebook.com/chefnavan/",
    "web": "N�o possui",
    "cnpj": "30.763.182/0001-13",
    "lat": -27.5878414,
    "long": -48.523197
  },
  {
    "name": "Vassoura Quebrada",
    "category": "Estabelecimento Geek",
    "address": "Rua Desembargador do Vale, 836 - Perdizes",
    "logo_url": "",
    "tel": "N�o consta",
    "face": "https://www.facebook.com/VassouraQuebrada/",
    "web": "http://vassouraquebrada.com.br/",
    "cnpj": "30.784.807/0001-23",
    "lat": -23.5295393,
    "long": -46.6884365
  },
  {
    "name": "Loja Do Toguro",
    "category": "Loja de Cards",
    "address": "Av. Dom Pedro II, 359 - 1 - Jardim, Santo Andr� - SP, 09080-110",
    "logo_url": "",
    "tel": "(11) 4437-1829",
    "face": "https://www.facebook.com/pages/category/Board-Game/Loja-do-Toguro-274897225946911/",
    "web": "https://www.lojadotoguro.com.br/",
    "cnpj": "N�o Consta",
    "lat": -23.6521969,
    "long": -46.534104
  },
  {
    "name": "Loja Shinokazi",
    "category": "Loja de Cards",
    "address": "R. Thomaz Gonzaga, 45B - Liberdade, S�o Paulo - SP, 01506-020",
    "logo_url": "",
    "tel": "(11) 4280-8631",
    "face": "https://www.facebook.com/shinozakistore/",
    "web": "https://www.lojashinozaki.com.br",
    "cnpj": "N�o Consta",
    "lat": -23.5577085,
    "long": -46.6360799
  },
  {
    "name": "Arena Game N' Beer",
    "category": "Estabelecimento Geek",
    "address": "Rua Eduardo Garcia, 637 - Aldeota",
    "logo_url": "",
    "tel": "(85) 98746-0375",
    "face": "https://www.instagram.com/arenagnb/",
    "web": "N�o possui",
    "cnpj": "30.900.961/0001-13",
    "lat": -3.7398591,
    "long": -38.4933897
  },
  {
    "name": "Lord Cards",
    "category": "Loja de Cards",
    "address": "Avenida Gon�alves da Costa, 3A - Jardim Vila Carr�o - S�o Paulo/ SP",
    "logo_url": "",
    "tel": "(11)98530 - 7873",
    "face": "https://www.facebook.com/www.lordcards.com.br/",
    "web": "N�o possui",
    "cnpj": "N�o Consta",
    "lat": -23.610677,
    "long": -46.45319
  },
  {
    "name": "Ludus Geek Store",
    "category": "Loja de Cards",
    "address": "R. Lauro de Freitas, Box 02 - Centro Comercial",
    "logo_url": "",
    "tel": "(84) 99611-9154",
    "face": "https://www.facebook.com/pg/ludusgeekstore",
    "web": "N�o possui",
    "cnpj": "31.449.674/0001-00",
    "lat": -12.893661,
    "long": -38.327237
  },
  {
    "name": "Manafix.net (Loja online)",
    "category": "Loja de Cards",
    "address": "Augusto de Mari, 3558",
    "logo_url": "",
    "tel": "(41)9888-22947",
    "face": "https://www.facebook.com/manafix.net/",
    "web": "https://www.manafix.net",
    "cnpj": "N�o Consta",
    "lat": -25.4734767,
    "long": -49.2881083
  },
  {
    "name": "Playthegame Bel�m",
    "category": "Lan House Gamer",
    "address": "Entre 14 De Mar�o e General�ssimo - Av. Gov. Jos� Malcher, 1371b - Nazar�",
    "logo_url": "",
    "tel": "(91) 99224-6420",
    "face": "https://www.facebook.com/pg/playthegamebelem",
    "web": "N�o possui",
    "cnpj": "31.012.465/0001-96",
    "lat": -1.449462,
    "long": -48.4815385
  },
  {
    "name": "Charada Burguer",
    "category": "Estabelecimento Geek",
    "address": "Av. Renata, 320, Vila Formosa",
    "logo_url": "",
    "tel": "(11) 2476-8498",
    "face": "https://www.facebook.com/pg/charadaburguer/",
    "web": "N�o possui",
    "cnpj": "31.314.004/0001-78",
    "lat": -23.5730809,
    "long": -46.5413325
  },
  {
    "name": "Mineral Games",
    "category": "Loja de Cards",
    "address": "R. Jos� de Oliveira Gomes, 40 - Centro, Po� - SP, 08561-300",
    "logo_url": "",
    "tel": "(11) 4130-5064",
    "face": "https://www.facebook.com/mineralgames/",
    "web": "https://www.mineralgames.com.br/",
    "cnpj": "21.293.069/0001-20",
    "lat": -23.5257754,
    "long": -46.3429173
  },
  {
    "name": "Charada Burguer (vila Piau�)",
    "category": "Estabelecimento Geek",
    "address": "Av. Mutinga, 4964 - Vila Piaui",
    "logo_url": "",
    "tel": "(11) 3621-2088",
    "face": "https://www.facebook.com/charadaburguer1/",
    "web": "N�o possui",
    "cnpj": "31.314.004/0001-79",
    "lat": -23.5038273,
    "long": -46.7581078
  },
  {
    "name": "Studio Games Bel�m",
    "category": "Estabelecimento Gamer",
    "address": "Shopping P�tio Bel�m - Tv. Padre Eut�quio, 1078 - Batista Campos",
    "logo_url": "",
    "tel": "(91) 98274-5658",
    "face": "https://www.facebook.com/pg/studiogamesbelem",
    "web": "http://www.studio-games.com",
    "cnpj": "31.383.016/0001-54",
    "lat": -1.4581958,
    "long": -48.4950454
  },
  {
    "name": "Mtg Brasil",
    "category": "Loja de Cards",
    "address": "Rua Aur�lia 924/926 esquina com a Rua Marcelina. Vila Romana",
    "logo_url": "",
    "tel": "(11) 2936-0170",
    "face": "https://www.facebook.com/pg/MtgBrasil.com.br/",
    "web": "https://www.mtgbrasil.com.br/",
    "cnpj": "17.052.509/0001-80",
    "lat": -23.5301217,
    "long": -46.6980553
  },
  {
    "name": "Studio Games Fortaleza",
    "category": "Estabelecimento Gamer",
    "address": "Shopping Iguatemi, Av. Washington Soares, 85 - Edson Queiroz",
    "logo_url": "",
    "tel": "(85) 99691-7942",
    "face": "https://www.facebook.com/studiogamesfortaleza/",
    "web": "http://www.studio-games.com",
    "cnpj": "31.383.016/0001-54",
    "lat": -3.755786,
    "long": -38.4885943
  },
  {
    "name": "Luderia Dungeon Games",
    "category": "Luderia",
    "address": "R. Duque de Caxias, 317 - Centro, Barueri - SP, 06401-010, Brazil",
    "logo_url": "",
    "tel": "(11) 94517-2090",
    "face": "https://www.facebook.com/LuderiaDungeonGames/",
    "web": "https://luderiadungeongames.blog/",
    "cnpj": "31.411.906/0001-22",
    "lat": -23.5090301,
    "long": -46.8739049
  },
  {
    "name": "Mtgstore",
    "category": "Loja de Cards",
    "address": "Rua 36 sul Lote 16 Loja 04 Sul - �guas Claras",
    "logo_url": "",
    "tel": "(61) 3972-7424",
    "face": "https://www.facebook.com/pg/mtgstorebr",
    "web": "http://www.mtgstore.com.br",
    "cnpj": "31.421.998/0001-21",
    "lat": -15.8363301,
    "long": -48.0386717
  },
  {
    "name": "Aventuras De Mesa",
    "category": "Loja de Cards",
    "address": "Estrada Kizaemon Takeuti, 3279, Sobreloja - Jd Pirajussara, Embu das Artes - SP, 06816-030",
    "logo_url": "",
    "tel": "(11) 9417-15617",
    "face": "https://www.facebook.com/LojaAventurasdeMesa/",
    "web": "N�o possui",
    "cnpj": "31.814.615/0001-85",
    "lat": -23.6427105,
    "long": -46.80568
  },
  {
    "name": "Newstation Sorocaba",
    "category": "Loja de Cards",
    "address": "Rua Santa Clara,266 - Centro, Sorocaba - SP, 18035-252",
    "logo_url": "",
    "tel": "(15) 3231-9740",
    "face": "https://www.facebook.com/newstationsorocaba/",
    "web": "www.newstationsorocaba.com.br",
    "cnpj": "N�o Consta",
    "lat": -23.503465,
    "long": -47.457601
  },
  {
    "name": "Multiverso Game Caf�",
    "category": "Loja de Cards",
    "address": "Pra�a Florival Brito, 55. Bairro Farol�ndia",
    "logo_url": "",
    "tel": "(79) 3302-4322",
    "face": "https://www.facebook.com/Multiversogamecafe/",
    "web": "https://www.multiversogamecafe.com",
    "cnpj": "31.882.845/0001-81",
    "lat": -10.973115,
    "long": -37.057097
  },
  {
    "name": "Loja Meepleverso",
    "category": "Luderia",
    "address": "CLN 411 Bloco D, loja 30 - Asa Norte",
    "logo_url": "",
    "tel": "(61) 3967-7408",
    "face": "https://www.facebook.com/pg/lojameepleverso",
    "web": "N�o informado",
    "cnpj": "31.918.544/0001-60",
    "lat": -15.7532942,
    "long": -47.8814547
  },
  {
    "name": "Avalon - Boardgames E Cardgames",
    "category": "Luderia",
    "address": "Rua Germano Schaeffer, Cond. Comercial Dellagnolo Center, 104, Sala Comercial n 05 - Centro 1",
    "logo_url": "",
    "tel": "(47) 3513-6086",
    "face": "https://www.facebook.com/AvalonBrusque",
    "web": "N�o possui",
    "cnpj": "32.211.422/0001-00",
    "lat": -27.1021369,
    "long": -48.9127814
  },
  {
    "name": "Overrun Cards & Games",
    "category": "Loja de Cards",
    "address": "1533, Av. Cristov�o Colombo - Centro, Araraquara - SP, 14801-200",
    "logo_url": "",
    "tel": "(16) 3357-4474",
    "face": "https://www.facebook.com/OverrunGeekStore/",
    "web": "https://www.overrun.com.br/",
    "cnpj": "11.244.723/0001-52",
    "lat": -21.7869937,
    "long": -48.1859506
  },
  {
    "name": "Paladins Games Store",
    "category": "Loja de Cards",
    "address": "Galeria Free Shop, R. S-1, 54 - St. Bueno",
    "logo_url": "",
    "tel": "(62) 3954-1813",
    "face": "https://www.facebook.com/pg/PaladinsGames",
    "web": "https://paladinsgames.com.br/",
    "cnpj": "17.153.165/0001-04",
    "lat": -16.7126841,
    "long": -49.2639819
  },
  {
    "name": "Noobar E-sports & Boardgames",
    "category": "Estabelecimento Geek",
    "address": "Av. Prof. Jo�o Machado, 257 - Capim Macio",
    "logo_url": "",
    "tel": "(84) 98102-1510",
    "face": "https://www.facebook.com/noobarrn/",
    "web": "N�o possui",
    "cnpj": "32.909.443/0001-96",
    "lat": -5.8478289,
    "long": -35.1998898
  },
  {
    "name": "Taberna Geek",
    "category": "Estabelecimento Geek",
    "address": "Amadeu Furtado, 452",
    "logo_url": "",
    "tel": "(85) 98101-5636",
    "face": "https://www.facebook.com/TabernaGK/",
    "web": "N�o possui",
    "cnpj": "33.172.520/0001-30",
    "lat": -3.7396015,
    "long": -38.5633168
  },
  {
    "name": "Point Hq",
    "category": "Loja de Cards",
    "address": "R Visconde De Piraja, 207, Loja 317",
    "logo_url": "",
    "tel": "(21)3442-2216",
    "face": "https://web.facebook.com/pg/Point-HQ-Quadrinhos-Mang�s-Cards-e-entretenimento-OFICIAL-215979191769621",
    "web": "http://www.pointhq.com.br",
    "cnpj": "68.647.486/0001-98",
    "lat": -22.9846913,
    "long": -43.2016685
  },
  {
    "name": "Point Hq",
    "category": "Loja de Cards",
    "address": "Rua Conde de Bonfim, 685 Loja 214 - Tijuca",
    "logo_url": "",
    "tel": "(21)3042-4835",
    "face": "https://web.facebook.com/pg/Point-HQ-Quadrinhos-Mang�s-Cards-e-entretenimento-OFICIAL-215979191769621",
    "web": "http://www.pointhq.com.br",
    "cnpj": "68.647.486/0001-98",
    "lat": -22.9323963,
    "long": -43.240298
  },
  {
    "name": "Itiban Comic Shop",
    "category": "Estabelecimento Geek",
    "address": "Av. Silva Jardim, 845 - Rebou�as",
    "logo_url": "",
    "tel": "(41) 3232-5367",
    "face": "https://www.facebook.com/itibancomicshop/",
    "web": "N�o possui",
    "cnpj": "81.743.221/0001-51",
    "lat": -25.4405514,
    "long": -49.2689747
  },
  {
    "name": "Power9 Campinas",
    "category": "Loja de Cards",
    "address": "Rua camargo pimentel 391 - Taquaral, Campinas - SP, 13087-130",
    "logo_url": "",
    "tel": "(19) 2517-3060",
    "face": "https://www.facebook.com/powerixcampinas/",
    "web": "https://www.power9.com.br/",
    "cnpj": "17.764.750/0001-32",
    "lat": -22.8895836,
    "long": -47.069405
  },
  {
    "name": "Rayearth Games",
    "category": "Loja de Cards",
    "address": "Rua Curuzu, 2302 - Lavap�s, Botucatu - SP, 18601-260",
    "logo_url": "",
    "tel": "(19) 9910-87722",
    "face": "https://www.facebook.com/pg/rayearthgames",
    "web": "www.rayearthgames.com.br",
    "cnpj": "29.221.673/0001-53",
    "lat": -22.9041034,
    "long": -48.4417079
  },
  {
    "name": "Moa Lan House",
    "category": "Lan House Gamer",
    "address": "R. T�rres Gon�alves, 54 - Centro",
    "logo_url": "",
    "tel": "(54) 99982-3030",
    "face": "https://www.facebook.com/atendimentomoa/",
    "web": "N�o possui",
    "cnpj": "89.990.543/0001-07",
    "lat": -27.6316741,
    "long": -52.2747686
  },
  {
    "name": "The Dragon Shop",
    "category": "Loja de Cards",
    "address": "Rua Visconde de Inha�ma, 98",
    "logo_url": "",
    "tel": "(81) 3046-2148",
    "face": "https://www.facebook.com/TheDragonShop/",
    "web": "http://www.thedragonshop.com.br/",
    "cnpj": "17.068.315/0001-73",
    "lat": -23.6180507,
    "long": -46.63455
  },
  {
    "name": "Arte V�deo Locadora e Lan House",
    "category": "Estabelecimento Gamer",
    "address": "649 - R. Benjamin Constant, 649 - Parque S�o Paulo",
    "logo_url": "",
    "tel": "(45) 3224-1229",
    "face": "https://www.facebook.com/artelocadora/",
    "web": "N�o possui",
    "cnpj": "N�o Consta",
    "lat": -24.978995,
    "long": -53.4664097
  },
  {
    "name": "Toca Do Quati",
    "category": "Loja de Cards",
    "address": "R. Sete de Setembro, 40 - Centro",
    "logo_url": "",
    "tel": "(47) 99784-7712",
    "face": "https://www.facebook.com/tocadoquati/",
    "web": "https://www.tocadoquati.com.br",
    "cnpj": "N�o Consta",
    "lat": -22.9038384,
    "long": -43.176434
  },
  {
    "name": "Top Deck",
    "category": "Loja de Cards",
    "address": "Pra�a Dr. Amaro de Souza Marinho, 07, Lagoa Nova",
    "logo_url": "",
    "tel": "(84)2010-3837",
    "face": "https://www.facebook.com/pg/topdecknatal",
    "web": "https://www.topdeckrn.com.br",
    "cnpj": "21.473.859/0001-98",
    "lat": -5.8177264,
    "long": -35.2053792
  },
  {
    "name": "Chrono Games 2004",
    "category": "Estabelecimento Gamer",
    "address": "R. Henry Ford, 220 - loja A - Tijuca, Rio de Janeiro - RJ, 20520-150, Brazil",
    "logo_url": "",
    "tel": "(21) 2268-1355",
    "face": "http://www.facebook.com.br/chronogames2004",
    "web": "http://www.chronogames2004.com.br/",
    "cnpj": "N�o Consta",
    "lat": -22.9281285,
    "long": -43.2358087
  },
  {
    "name": "Dxcma Arena",
    "category": "Estabelecimento Gamer",
    "address": "R. Andr� Carloni, 60 - Enseada do Su�",
    "logo_url": "",
    "tel": "(27) 3026-4118",
    "face": "https://www.facebook.com/dxcmaoficial/",
    "web": "https://dxcma.com.br/",
    "cnpj": "N�o Consta",
    "lat": -20.3084825,
    "long": -40.2919715
  },
  {
    "name": "A Ilha De Ferro, Hobby Store",
    "category": "Luderia",
    "address": "Rua Lauro Linhares, 820, Loja 1 bloco C, Trindade",
    "logo_url": "",
    "tel": "(48) 8403-6510",
    "face": "https://www.facebook.com/ailhadeferro/",
    "web": "https://ailhadeferro.com.br/?view=ecom/home",
    "cnpj": "26.736.536/0001-63",
    "lat": -27.5867428,
    "long": -48.524956
  },
  {
    "name": "Nostalgia Bar Gamer",
    "category": "Estabelecimento Gamer",
    "address": "QSE 01 lote 14 loja 01",
    "logo_url": "",
    "tel": "(61) 98117-8789",
    "face": "https://www.facebook.com/nostalgiabargamer/",
    "web": "N�o informado",
    "cnpj": "N�o Consta",
    "lat": -15.8566667,
    "long": -48.0391667
  },
  {
    "name": "Playnet Lan House - Loja 2",
    "category": "Estabelecimento Gamer",
    "address": "Av. Dom Ant�nio, 712 - Santa Cec�lia, Assis - SP, 19806-172, Brazil",
    "logo_url": "",
    "tel": "(18) 3323-7883",
    "face": "https://www.facebook.com/lanplaynetassis",
    "web": "N�o possui",
    "cnpj": "N�o Consta",
    "lat": -22.6512598,
    "long": -50.4246977
  },
  {
    "name": "Warriors Game House",
    "category": "Estabelecimento Gamer",
    "address": "R. Francisco Vasconcelos - S�o Crist�v�o, Cabo Frio - RJ, 28909-570, Brazil",
    "logo_url": "",
    "tel": "(22) 99936-9256",
    "face": "https://www.facebook.com/warriorsgamehouse/",
    "web": "N�o possui",
    "cnpj": "N�o Consta",
    "lat": -22.8913773,
    "long": -4.2040575
  },
  {
    "name": "Covil Game Bar",
    "category": "Estabelecimento Geek",
    "address": "Rua do sabo�,12",
    "logo_url": "",
    "tel": "(11) 95021-1461",
    "face": "https://www.facebook.com/covilgb/",
    "web": "N�o possui",
    "cnpj": "N�o Consta",
    "lat": -23.4650359,
    "long": -46.523386
  },
  {
    "name": "G3ek Hamburgueria Artesanal",
    "category": "Estabelecimento Geek",
    "address": "Rua Jequirituba, 2005",
    "logo_url": "",
    "tel": "(11) 2768-3997",
    "face": "https://www.facebook.com/g3ekhamburgueria/",
    "web": "N�o possui",
    "cnpj": "N�o Consta",
    "lat": -23.7379014,
    "long": -46.6868516
  },
  {
    "name": "Gibi Cultura Geek",
    "category": "Estabelecimento Geek",
    "address": "R. Maj. Maragliano, 364 - Vila Mariana, S�o Paulo - SP, 04017-030",
    "logo_url": "",
    "tel": "(11) 5084-1165",
    "face": "https://www.facebook.com/GIBICULTURAGEEK/",
    "web": "http://www.gibiculturageek.com/",
    "cnpj": "N�o Consta",
    "lat": -23.5888592,
    "long": -46.6392902
  },
  {
    "name": "Hamburgeekeria",
    "category": "Estabelecimento Geek",
    "address": "R. 13 de Junho, 895 - Centro",
    "logo_url": "",
    "tel": "(67) 3305-1817",
    "face": "https://www.facebook.com/pg/hamburgeekeria",
    "web": "N�o possui",
    "cnpj": "N�o Consta",
    "lat": -15.6043921,
    "long": -56.1004086
  },
  {
    "name": "Hands Board Games",
    "category": "Estabelecimento Geek",
    "address": "Av. Cerro Azul, 1028 - Zona 02",
    "logo_url": "",
    "tel": "(44) 3037-5219",
    "face": "https://www.facebook.com/handsbarboardgames/",
    "web": "http://www.handsbar.com.br/",
    "cnpj": "N�o Consta",
    "lat": -23.4362976,
    "long": -51.9339767
  },
  {
    "name": "Jumanji Bar Games",
    "category": "Estabelecimento Geek",
    "address": "AVENIDA PROFESSORA MAGDA PINTO AMARANTE, 72, JD. HORT�NCIA",
    "logo_url": "",
    "tel": "(35) 99867-4459",
    "face": "https://www.facebook.com/pg/jumanjibargames",
    "web": "N�o possui",
    "cnpj": "N�o Consta",
    "lat": -21.807161,
    "long": -46.546147
  },
  {
    "name": "Lunn Store",
    "category": "Estabelecimento Geek",
    "address": "R. Oleg�rio Maciel, 287, 102 - Centro, Patos de Minas - MG, 38700-122",
    "logo_url": "",
    "tel": "(34) 99952-5188",
    "face": "https://www.facebook.com/lunnstore/",
    "web": "N�o possui",
    "cnpj": "N�o Consta",
    "lat": -18.5900947,
    "long": -46.5159969
  },
  {
    "name": "Bravo Jogos",
    "category": "Luderia",
    "address": "R. Gertr�des de Lima, 715 - Centro, Santo Andr� - SP, 09020-000, Brazil",
    "logo_url": "",
    "tel": "(11) 95490-7492",
    "face": "https://www.facebook.com/bravojogosdetabuleiro/",
    "web": "http://www.bravojogos.com.br/",
    "cnpj": "23.420.773/0001-22",
    "lat": -23.6646551,
    "long": -46.5227944
  },
  {
    "name": "Casa De Ruter",
    "category": "Luderia",
    "address": "R Antonio Da Veiga, 635, Sala 02, Victor Konder",
    "logo_url": "",
    "tel": "(47) 3037-2112",
    "face": "https://www.facebook.com/pg/casaderuter",
    "web": "N�o possui",
    "cnpj": "24.394.169/0001-31",
    "lat": -26.9091527,
    "long": -49.0809625
  },
  {
    "name": "Castle of Illusions",
    "category": "Luderia",
    "address": "Rua Ademar de Barros, 259, 2� Andar - Centro, S�o Jo�o da Boa Vista - SP, 13870-080",
    "logo_url": "",
    "tel": "(19) 3623-2008",
    "face": "https://www.facebook.com/castleofillusions/",
    "web": "www.castleofillusions.com.br",
    "cnpj": "N�o Consta",
    "lat": -21.9707338,
    "long": -46.7951595
  },
  {
    "name": "Center Cards",
    "category": "Luderia",
    "address": "Av. 9 de Julho, 2201 - Anhangaba�, Jundia� - SP, 13208-056",
    "logo_url": "",
    "tel": "(11) 4522-6894",
    "face": "https://www.facebook.com/CenterCards/",
    "web": "https://centercards.com.br/",
    "cnpj": "N�o Consta",
    "lat": -23.1919745,
    "long": -46.889628
  },
  {
    "name": "Clube Do Tabuleiro",
    "category": "Luderia",
    "address": "R. Lopes Trov�o, 433 - Icara�, Niter�i - RJ, 24220-070, Brazil",
    "logo_url": "",
    "tel": "(21) 3629-5678",
    "face": "https://www.facebook.com/clubedotabuleiro",
    "web": "http://www.clubedotabuleiro.com/",
    "cnpj": "31.701.174/0001-05",
    "lat": -22.8997602,
    "long": -43.1042772
  },
  {
    "name": "Clubenerd",
    "category": "Luderia",
    "address": "Rua Minerva, 254 - Cai�ara-Adelaide, Belo Horizonte - MG, 30720-580, Brazil",
    "logo_url": "",
    "tel": "(31) 97306-4040",
    "face": "https://www.facebook.com/clubenerdbh/",
    "web": "https://www.clubenerdstore.com/",
    "cnpj": "29.946.041/0001-57",
    "lat": -19.9055874,
    "long": -43.9766021
  },
  {
    "name": "Coffee House & Boardgame",
    "category": "Luderia",
    "address": "Rua Huascar de Figueiredo, 1078 - Centro",
    "logo_url": "",
    "tel": "(92) 98138-1246",
    "face": "https://www.facebook.com/pg/coffehouseboardgames",
    "web": "N�o possui",
    "cnpj": "31.996.563/0001-05",
    "lat": -3.1324026,
    "long": -60.0188669
  },
  {
    "name": "O Condado Bar Gourmet",
    "category": "Estabelecimento Geek",
    "address": "Av. Dom Pedro I, 634 - Dom Pedro",
    "logo_url": "",
    "tel": "(92) 99193-9271",
    "face": "https://www.facebook.com/O-Condado-Bar-Cultura-Geek-Litrones-Games-e-Humor-301407583781856/",
    "web": "https://www.instagram.com/ocondadobar/",
    "cnpj": "N�o Consta",
    "lat": -23.6702505,
    "long": -46.5139875
  },
  {
    "name": "Complexo Geek",
    "category": "Luderia",
    "address": "AV. Bernardo Vieira, 3716, Loja 01, Lagoa Nova",
    "logo_url": "",
    "tel": "(84) 3302-6521",
    "face": "https://www.facebook.com/complexogeeknatall/",
    "web": "N�o possui",
    "cnpj": "27.244.155/0001-20",
    "lat": -5.8121897,
    "long": -35.2072263
  },
  {
    "name": "C�pula Do Trov�o",
    "category": "Luderia",
    "address": "Rua General Argolo, 870, Centro",
    "logo_url": "",
    "tel": "N�o Consta",
    "face": "https://www.facebook.com/CupulaDT/",
    "web": "N�o possui",
    "cnpj": "21.818.336/0001-36",
    "lat": -31.7623882,
    "long": -52.338919
  },
  {
    "name": "Poltrona Nerd",
    "category": "Estabelecimento Geek",
    "address": "Rua Man�gua 132 - Jardim das Am�ricas",
    "logo_url": "",
    "tel": "(65) 98107-3366",
    "face": "https://www.facebook.com/pg/PoltronaNerdBar",
    "web": "N�o informado",
    "cnpj": "N�o Consta",
    "lat": -15.605802,
    "long": -56.074068
  },
  {
    "name": "Season One Geek�s Bar",
    "category": "Estabelecimento Geek",
    "address": "R. Mourato Coelho, 575 - Pinheiros, S�o Paulo - SP, 01304-000",
    "logo_url": "",
    "tel": "(11)99778-2855",
    "face": "https://www.facebook.com/seasononebar/",
    "web": "N�o possui",
    "cnpj": "N�o Consta",
    "lat": -23.5624303,
    "long": -46.6885557
  },
  {
    "name": "Dice Store Uberaba",
    "category": "Luderia",
    "address": "R. Jo�o Pinheiro, 463 - Centro",
    "logo_url": "",
    "tel": "(34)9977-2233",
    "face": "N�o possui",
    "web": "https://dice-store-uberaba.business.site/",
    "cnpj": "N�o Consta",
    "lat": -17.7405182,
    "long": -46.1741639
  },
  {
    "name": "Seu Geek",
    "category": "Estabelecimento Geek",
    "address": "R. S�o Paulo, 320 - Todos Os Santos",
    "logo_url": "",
    "tel": "(38) 99930-4225",
    "face": "https://www.facebook.com/pg/seugeek",
    "web": "https://loja.seugeek.com/",
    "cnpj": "N�o Consta",
    "lat": -16.7188214,
    "long": -43.8727931
  },
  {
    "name": "Taverna Burgbeer",
    "category": "Estabelecimento Geek",
    "address": "Rua Conselheiro Portela, 374",
    "logo_url": "",
    "tel": "(81) 3038-6464",
    "face": "https://www.facebook.com/burgbeer/",
    "web": "N�o possui",
    "cnpj": "N�o Consta",
    "lat": -8.0422433,
    "long": -34.8941621
  },
  {
    "name": "�rea 5.1 Lan House Gamer",
    "category": "Lan House Gamer",
    "address": "R. Augusta Aparecida de Carvalho Morais, 409 - Jardim Santa Helena",
    "logo_url": "",
    "tel": "(11) 98201-4428",
    "face": "https://www.facebook.com/Area5.1LanHouseGamer/",
    "web": "https://area-51-lan-house-gamer.business.site/",
    "cnpj": "N�o Consta",
    "lat": -23.5437253,
    "long": -46.315448
  },
  {
    "name": "Forfun Club & Store",
    "category": "Luderia",
    "address": "Rua J�lio de Castilho, 490, Centro",
    "logo_url": "",
    "tel": "(69) 3301-6714",
    "face": "https://www.facebook.com/pg/forfunclubstore",
    "web": "http://www.forfunclubstore.com.br",
    "cnpj": "16.840.067/0001-74",
    "lat": -8.7608538,
    "long": -63.9027885
  },
  {
    "name": "Cyber Space Lan House",
    "category": "Lan House Gamer",
    "address": "R. Independ�ncia, 2868 - Centro, S�o Jos� do Rio Preto - SP, 15102-002",
    "logo_url": "",
    "tel": "(17) 3211-9466",
    "face": "https://www.facebook.com/CyberSpaceOficial/",
    "web": "N�o possui",
    "cnpj": "N�o Consta",
    "lat": -20.8144979,
    "long": -49.3858722
  },
  {
    "name": "Day Assistance - Lan House/inform�tica",
    "category": "Lan House Gamer",
    "address": "R. Augusto de Almeida Batista, 2307 - Jardim Vazame, Embu das Artes - SP, 06814-275, Brazil",
    "logo_url": "",
    "tel": "(11) 98256-3846",
    "face": "N�o possui",
    "web": "https://day-assistence-lan-houseinformatica.negocio.site/",
    "cnpj": "N�o Consta",
    "lat": -23.6588847,
    "long": -46.8056226
  },
  {
    "name": "Evolution Computadores E Lan House",
    "category": "Lan House Gamer",
    "address": "R. F�lix da Cunha, 485 - Centro",
    "logo_url": "",
    "tel": "(55) 3431-8955",
    "face": "https://www.facebook.com/elanhouse/",
    "web": "N�o possui",
    "cnpj": "N�o Consta",
    "lat": -30.017173,
    "long": -51.2027601
  },
  {
    "name": "Fox Lanhouse",
    "category": "Lan House Gamer",
    "address": "Rua: Cavalheiro Petraglia n�363 Vila Santos Dumont",
    "logo_url": "",
    "tel": "(16) 3720-6065",
    "face": "https://www.facebook.com/foxlanhousefranca/",
    "web": "N�o possui",
    "cnpj": "N�o Consta",
    "lat": -20.5368093,
    "long": -47.4162944
  },
  {
    "name": "Geekhaus Game Store",
    "category": "Luderia",
    "address": "Rua Coronel Pedro Benedet, 333, sala 46",
    "logo_url": "",
    "tel": "(48) 3413-8848",
    "face": "https://www.facebook.com/GeekHausGameStore/",
    "web": "N�o possui",
    "cnpj": "27.127.733/0001-48",
    "lat": -28.6753595,
    "long": -49.3666237
  },
  {
    "name": "Hadouken Game Center",
    "category": "Lan House Gamer",
    "address": "Rua Conselheiro Rui Barbosa,25",
    "logo_url": "",
    "tel": "(47) 3019-4547",
    "face": "https://www.facebook.com/hadoukengamecenter/",
    "web": "N�o possui",
    "cnpj": "N�o Consta",
    "lat": -27.0997627,
    "long": -48.9170134
  },
  {
    "name": "Ice Lanhouse",
    "category": "Lan House Gamer",
    "address": "Av. Ant�nio Cunha, 1730 - Jardim da Posse, Nova Igua�u - RJ, 26021-190",
    "logo_url": "",
    "tel": "(21) 96427-5894",
    "face": "https://www.facebook.com/icelanesports/",
    "web": "N�o possui",
    "cnpj": "N�o Consta",
    "lat": -22.7323186,
    "long": -43.4427873
  },
  {
    "name": "Paradise Of Gamers (lan House)",
    "category": "Lan House Gamer",
    "address": "Rua Antonio Bleme Filho, 55 - Esp�rito Santo, Betim - MG, 32671-536, Brazil",
    "logo_url": "",
    "tel": "(31) 97168-6896",
    "face": "https://www.facebook.com/ParadiseOficiaal",
    "web": "https://paradiseofgamers1.wixsite.com/website-1?fbclid=IwAR2TCGfFaBkNxtcVqnKsEZQTSLad32lBAUH2YAiqsYe1onuydI6zz2qn67o",
    "cnpj": "N�o Consta",
    "lat": -19.9491188,
    "long": -44.1882258
  },
  {
    "name": "Hack Cards&games",
    "category": "Luderia",
    "address": "Avenida Augusto Dos Anjos",
    "logo_url": "",
    "tel": "(85) 98732-5835",
    "face": "https://www.facebook.com/hackcardsegames/",
    "web": "N�o possui",
    "cnpj": "30.638.601/0001-95",
    "lat": -3.7787229,
    "long": -38.5779167
  },
  {
    "name": "Hqueijo Comics",
    "category": "Luderia",
    "address": "Rua Gon�alves Dias, 1922 / 301",
    "logo_url": "",
    "tel": "(31) 3047-2956",
    "face": "https://www.facebook.com/pg/hqueijocomics",
    "web": "http://www.hqueijocomics.com.br",
    "cnpj": "22.880.663/0001-80",
    "lat": -19.9296851,
    "long": -43.9427442
  },
  {
    "name": "Play4lan Internet Games",
    "category": "Lan House Gamer",
    "address": "Av. Silvio Am�rico Sasdelli, 2431 - Vila Res. A",
    "logo_url": "",
    "tel": "(45) 3025-4123",
    "face": "https://www.facebook.com/play4lan/",
    "web": "N�o possui",
    "cnpj": "N�o Consta",
    "lat": -25.4939963,
    "long": -54.559799
  },
  {
    "name": "Player Games",
    "category": "Lan House Gamer",
    "address": "Av. Rio Madeira, 148 - Nossa Sra. das Gracas",
    "logo_url": "",
    "tel": "(92) 98402-6688",
    "face": "https://www.facebook.com/PlayerGamesBrasil/",
    "web": "N�o possui",
    "cnpj": "N�o Consta",
    "lat": -3.1070563,
    "long": -60.0205213
  },
  {
    "name": "Loja Caverna Do Drag�o",
    "category": "Luderia",
    "address": "Rua Goi�s, 79, Santos / Boqueir�o, S�o Paulo",
    "logo_url": "",
    "tel": "(13) 3062-1866",
    "face": "https://www.facebook.com/lojacavernadodragao/",
    "web": "http://lojacavernadodragao.com/",
    "cnpj": "21.552.413/0001-59",
    "lat": -23.9611435,
    "long": -46.3261741
  },
  {
    "name": "Loja D6",
    "category": "Luderia",
    "address": "Rua Ernesto Gomes Maranh�o, 1981A, Jati�ca",
    "logo_url": "",
    "tel": "(82) 98894-7677",
    "face": "https://www.facebook.com/pg/lojad6.mcz",
    "web": "http://www.lojad6.com.br",
    "cnpj": "23.357.918/0001-98",
    "lat": -9.6529636,
    "long": -35.7171085
  },
  {
    "name": "Powerlounge",
    "category": "Lan House Gamer",
    "address": "Rua Claudino Alves, 13 , Santana",
    "logo_url": "",
    "tel": "(11) 2977-1317",
    "face": "https://www.facebook.com/PowerLoungeSP/",
    "web": "https://www.powerlounge.com.br/",
    "cnpj": "N�o Consta",
    "lat": -23.5010244,
    "long": -46.6174181
  },
  {
    "name": "Ludens",
    "category": "Luderia",
    "address": "R. Magda Perona Frossard, 570 - Subsetor Sul - 5 (S-5)",
    "logo_url": "",
    "tel": "(16) 3325-5178",
    "face": "https://www.facebook.com/ludensjogos/",
    "web": "https://www.instagram.com/ludensjogos/",
    "cnpj": "26.274.549/0001-68",
    "lat": -21.2189321,
    "long": -47.8196581
  },
  {
    "name": "Qg Gaming",
    "category": "Lan House Gamer",
    "address": "Av. Gov Magalh�es Barata, 278",
    "logo_url": "",
    "tel": "(91)993303046",
    "face": "https://www.facebook.com/pg/QGGamingHouse",
    "web": "N�o possui",
    "cnpj": "N�o Consta",
    "lat": -1.4522698,
    "long": -48.4778702
  },
  {
    "name": "Roma Lan House 24 Horas",
    "category": "Lan House Gamer",
    "address": "R. Frederico Abranches, 445 - Santa Cecilia, S�o Paulo - SP, 01225-001",
    "logo_url": "",
    "tel": "(11) 3791-7078",
    "face": "https://www.facebook.com/RomaLanHouse",
    "web": "https://www.romacyber.com.br/",
    "cnpj": "N�o Consta",
    "lat": -23.5389401,
    "long": -46.6515209
  },
  {
    "name": "Ludorama",
    "category": "Luderia",
    "address": "Av. Beta, 12 - Parque Athenas",
    "logo_url": "",
    "tel": "(98) 3304-8638",
    "face": "https://www.facebook.com/Ludoramaoficial/",
    "web": "N�o possui",
    "cnpj": "N�o Consta",
    "lat": -25.039196,
    "long": -44.2477349
  },
  {
    "name": "Skill Lan House",
    "category": "Lan House Gamer",
    "address": "Shopping 3 Am�ricas, T�rreo",
    "logo_url": "",
    "tel": "(65) 3028-7040",
    "face": "https://www.facebook.com/skill.lanoficial/",
    "web": "N�o possui",
    "cnpj": "N�o Consta",
    "lat": -15.6123282,
    "long": -56.0733748
  },
  {
    "name": "Terabyte Internet & Games",
    "category": "Lan House Gamer",
    "address": "Rua Caruaru COHAB I",
    "logo_url": "",
    "tel": "(87) 99101-2774",
    "face": "",
    "web": "https://terabyte-internet-games.negocio.site",
    "cnpj": "N�o Consta",
    "lat": -8.2742446,
    "long": -35.9935589
  },
  {
    "name": "Meeple Club Tabuleiria",
    "category": "Luderia",
    "address": "R. Marqu�s do Herval, 894 - Centro",
    "logo_url": "",
    "tel": "(51) 3136-0302",
    "face": "https://www.facebook.com/meepleclub/",
    "web": "N�o possui",
    "cnpj": "N�o Consta",
    "lat": -29.7670111,
    "long": -51.1445527
  },
  {
    "name": "Meeple Store",
    "category": "Luderia",
    "address": "Rua Clotilde Louro, 743 - Centro, Embu-Gua�� - SP, 06900-000",
    "logo_url": "",
    "tel": "(11) 4661-8713",
    "face": "https://www.facebook.com/meeplebrstore/",
    "web": "www.meeplestore.com.br",
    "cnpj": "20.726.450/0001-73",
    "lat": -23.8318693,
    "long": -46.81888
  },
  {
    "name": "Nerd's",
    "category": "Luderia",
    "address": "Rua Esther Oliveira Galveas,N� 60, Loja 13, Jardim Camburi, Ed Hyde Park",
    "logo_url": "",
    "tel": "(27) 99914-3311",
    "face": "https://www.facebook.com/pg/lojanerds",
    "web": "http://www.lojanerds.com.br",
    "cnpj": "26.221.125/0001-35",
    "lat": -20.2510207,
    "long": -40.2710055
  },
  {
    "name": "Kinoene Cards",
    "category": "Loja de Cards",
    "address": "R. Santa Clara, 447 - Vila Adyana, S�o Jos� dos Campos - SP, 12243-630",
    "logo_url": "",
    "tel": "(12) 3922-3490",
    "face": "https://www.facebook.com/kinoene.cards/",
    "web": "https://www.kinoenecards.com.br/",
    "cnpj": "N�o Consta",
    "lat": -23.198039,
    "long": -45.8928478
  },
  {
    "name": "Mystical Space Store",
    "category": "Loja de Cards",
    "address": "Av. Tr�s Barras, 17 - Vila Vilas Boas",
    "logo_url": "",
    "tel": "(67) 99226-1653",
    "face": "https://www.facebook.com/pg/lojamysticalspace",
    "web": "http://mysticalspace.com.br",
    "cnpj": "N�o Consta",
    "lat": -20.4768057,
    "long": -54.5913819
  },
  {
    "name": "Newstation S�o Paulo",
    "category": "Loja de Cards",
    "address": "R. Rio Grande, 48 - Vila Mariana, S�o Paulo - SP, 04002-010",
    "logo_url": "",
    "tel": "(11) 5539-0127",
    "face": "https://www.facebook.com/newstationsaopaulo/",
    "web": "N�o possui",
    "cnpj": "N�o Consta",
    "lat": -23.5853495,
    "long": -46.6444577
  },
  {
    "name": "Playground Game Store",
    "category": "Loja de Cards",
    "address": "RUA BOA VISTA DE BROTAS, 07 2� ANDAR",
    "logo_url": "",
    "tel": "(71) 3013-8259",
    "face": "https://www.facebook.com/playgroundgamestore/",
    "web": "https://www.playgroundgames.com.br/",
    "cnpj": "N�o Consta",
    "lat": -12.9824564,
    "long": -38.4996499
  },
  {
    "name": "Arena Cards Game",
    "category": "Luderia",
    "address": "R. Dr. Ivan Clementino Santana, 74 - Lagoa Grande, Patos de Minas - MG, 38700-354",
    "logo_url": "",
    "tel": "(34) 99682-5154",
    "face": "https://www.facebook.com/Arena-Games-549466585144790/",
    "web": "http://www.arenacardgames.com.br/",
    "cnpj": "N�o Consta",
    "lat": -18.600427,
    "long": -46.5197406
  },
  {
    "name": "Paragon",
    "category": "Luderia",
    "address": "farmaceutico jacob fanelli, 381 vila S�o Jo�o CEP: 13480-720",
    "logo_url": "",
    "tel": "(19) 3442-2342",
    "face": "https://www.facebook.com/paragontcg/",
    "web": "N�o possui",
    "cnpj": "N�o Consta",
    "lat": -22.564792,
    "long": -47.4130829
  },
  {
    "name": "Atlantis Games",
    "category": "Luderia",
    "address": "Rua: Saldanha Marino n�: 4261. Bairro Vila Santo Antonio",
    "logo_url": "",
    "tel": "(17) 3364-7870",
    "face": "https://www.facebook.com/pg/AtlantisRioPreto",
    "web": "N�o possui",
    "cnpj": "N�o Consta",
    "lat": -20.822615,
    "long": -49.3754749
  },
  {
    "name": "Popkai Mundo Geek",
    "category": "Luderia",
    "address": "Rua Saldanha Marinho, 709",
    "logo_url": "",
    "tel": "(16) 3043-2158",
    "face": "https://www.facebook.com/PoPKaiMundoGeek",
    "web": "https://popkaimundogeek.blogspot.com/",
    "cnpj": "15.871.195/0001-12",
    "lat": -21.1758804,
    "long": -47.8129939
  },
  {
    "name": "Quantum Boardgames",
    "category": "Luderia",
    "address": "Rua Fiscal Perdig�o, 664",
    "logo_url": "",
    "tel": "(85) 99992-1349",
    "face": "https://www.facebook.com/quantum.boardgame/",
    "web": "N�o possui",
    "cnpj": "N�o Consta",
    "lat": -3.8001005,
    "long": -38.4986134
  },
  {
    "name": "Fora Da Caixa - Biblioteca De Jogos De Mesa",
    "category": "Luderia",
    "address": "R. Dr. �lvaro Albuquerque, 251 - Bigorrilho",
    "logo_url": "",
    "tel": "(41) 99882-3456",
    "face": "https://www.facebook.com/foradacaixacuritiba/",
    "web": "N�o possui",
    "cnpj": "N�o Consta",
    "lat": -25.4262712,
    "long": -49.3008001
  },
  {
    "name": "Game Vault",
    "category": "Luderia",
    "address": "Rua das Azal�as, 138 - Mirand�polis",
    "logo_url": "",
    "tel": "(11) 3796-8942",
    "face": "https://www.facebook.com/pg/gamevaultbr",
    "web": "https://www.gamevault.com.br/",
    "cnpj": "N�o Consta",
    "lat": -23.6071768,
    "long": -46.6395825
  },
  {
    "name": "Guerreiro Offline",
    "category": "Luderia",
    "address": "R. Pernambuco, 3873 - Jardim Eldorado, Votuporanga - SP, 15500-006, Brazil",
    "logo_url": "",
    "tel": "(17) 98102-6732",
    "face": "https://www.facebook.com/guerreiroffline",
    "web": "http://www.guerreiroffline.com/",
    "cnpj": "N�o Consta",
    "lat": -20.4181338,
    "long": -49.9741706
  },
  {
    "name": "Ludus Luderia",
    "category": "Luderia",
    "address": "Rua Treze de Maio, 972 - Bela Vista",
    "logo_url": "",
    "tel": "(11) 3253-8452",
    "face": "https://www.facebook.com/ludusluderia/",
    "web": "N�o possui",
    "cnpj": "N�o Consta",
    "lat": -23.561859,
    "long": -46.6462655
  },
  {
    "name": "Paladino Hobbies",
    "category": "Luderia",
    "address": "R. Padre Anchieta, 2454 - lj 24 - Bigorrilho",
    "logo_url": "",
    "tel": "(41) 3082-9520",
    "face": "https://www.facebook.com/hobbies.paladino/",
    "web": "N�o possui",
    "cnpj": "N�o Consta",
    "lat": -25.4343139,
    "long": -49.303024
  },
  {
    "name": "Pittasstore",
    "category": "Luderia",
    "address": "Rua da Mooca, 1601",
    "logo_url": "",
    "tel": "(11) 94784-2874",
    "face": "https://www.facebook.com/pittasboardgames/",
    "web": "https://pittasstore.com.br",
    "cnpj": "N�o Consta",
    "lat": -23.5543262,
    "long": -46.609387
  },
  {
    "name": "Taberna Game House",
    "category": "Luderia",
    "address": "Av S�o paulo, 40 Duartina",
    "logo_url": "",
    "tel": "(14) 99687-1750",
    "face": "https://www.facebook.com/TabernaGameHouse/",
    "web": "N�o possui",
    "cnpj": "N�o Consta",
    "lat": -22.4154498,
    "long": -49.4122168
  },
  {
    "name": "Taverna Game House",
    "category": "Luderia",
    "address": "R. Alferes Poli, 588",
    "logo_url": "",
    "tel": "(41) 99522-1212",
    "face": "https://www.facebook.com/TavernaGameHouse/",
    "web": "N�o possui",
    "cnpj": "N�o Consta",
    "lat": -25.441714,
    "long": -49.2712555
  },
  {
    "name": "Taverneiros Valinhos",
    "category": "Luderia",
    "address": "Rua Jacob Turcati, 497",
    "logo_url": "",
    "tel": "(19) 99419-6083",
    "face": "https://www.facebook.com/TaverneirosValinhos/",
    "web": "https://taverneirosvalinhos.com.br/",
    "cnpj": "N�o Consta",
    "lat": -22.9402323,
    "long": -46.9947265
  },
  {
    "name": "Tm House",
    "category": "Luderia",
    "address": "R. Amap�, 43-129 - Centro, Jaguari�na - SP, 13820-000",
    "logo_url": "",
    "tel": "(19) 3837-4926",
    "face": "https://www.facebook.com/TM.Lan.House/",
    "web": "N�o possui",
    "cnpj": "18.798.875/0001-46",
    "lat": -22.7041469,
    "long": -46.9901898
  },
  {
    "name": "Vila Do Rpg",
    "category": "Luderia",
    "address": "R. Benjamin Carneiro Gir�o, 87 - Montese",
    "logo_url": "",
    "tel": "N�o consta",
    "face": "https://www.facebook.com/pg/viladorpg",
    "web": "https://www.viladorpg.com.br/",
    "cnpj": "N�o Consta",
    "lat": -3.7625464,
    "long": -38.5457361
  }
]